	CUSTOM.date [local]	CUSTOM.updateTime [local]	OSD.flyTime	OSD.flyTime [s]	OSD.latitude	OSD.longitude	OSD.height [ft]	OSD.pitch	OSD.roll	OSD.yaw	OSD.yaw [360]	GIMBAL.mode	GIMBAL.pitch	GIMBAL.roll	GIMBAL.yaw	GIMBAL.yaw [360]	DETAILS.videoTime [s]
0	3/1/2024	7:43:28.59 AM	1m 41.4s	101.4	-2.53697576690511	-44.2792379037978	0	3.9	1.3	-52.1	307.9	Free	0	0	0	0	30
1	3/1/2024	7:43:28.69 AM	1m 41.5s	101.5	-2.53697577046641	-44.2792379196194	0	3.9	1.3	-52.1	307.9	Free	0	0	0	0	30
2	3/1/2024	7:43:28.79 AM	1m 41.6s	101.6	-2.53697578542001	-44.2792379370531	0	3.9	1.3	-52.1	307.9	Free	0	0	0	0	30
3	3/1/2024	7:43:28.90 AM	1m 41.7s	101.7	-2.5369758154074	-44.2792379704328	0	3.9	1.3	-52.1	307.9	Follow Yaw	0	0	-56	304	30
4	3/1/2024	7:43:29.00 AM	1m 41.8s	101.8	-2.53697584573808	-44.279238009142	0	3.8	1.3	-52.2	307.8	Follow Yaw	0	0	-56	304	30
5	3/1/2024	7:43:29.10 AM	1m 41.9s	101.9	-2.53697586262454	-44.279238053078	0	3.8	1.3	-52.2	307.8	Follow Yaw	0	0	-55.9	304.1	30
6	3/1/2024	7:43:29.20 AM	1m 42.0s	102.0	-2.53697587656463	-44.2792380889188	0	3.8	1.3	-52.1	307.9	Follow Yaw	0	0	-55.9	304.1	30
7	3/1/2024	7:43:29.30 AM	1m 42.1s	102.1	-2.53697588392123	-44.279238111337	0	3.8	1.3	-52.1	307.9	Follow Yaw	0	0	-55.9	304.1	30
8	3/1/2024	7:43:29.41 AM	1m 42.2s	102.2	-2.5369758860153	-44.2792381361605	0	3.8	1.3	-52.1	307.9	Follow Yaw	0	0	-55.9	304.1	30
9	3/1/2024	7:43:29.51 AM	1m 42.3s	102.3	-2.53697588694402	-44.279238173815	0	3.8	1.3	-52.1	307.9	Follow Yaw	0	0	-55.9	304.1	30
10	3/1/2024	7:43:29.61 AM	1m 42.4s	102.4	-2.53697588356276	-44.2792382157486	0	3.7	1.3	-52.1	307.9	Follow Yaw	0	0	-55.9	304.1	30
11	3/1/2024	7:43:29.72 AM	1m 42.5s	102.5	-2.53697588192882	-44.279238262746	0	3.8	1.3	-52.1	307.9	Follow Yaw	0	0	-55.9	304.1	30
12	3/1/2024	7:43:29.82 AM	1m 42.6s	102.6	-2.53697587632321	-44.2792382997466	0	3.8	1.3	-52.1	307.9	Follow Yaw	0	0	-55.9	304.1	30
13	3/1/2024	7:43:29.92 AM	1m 42.7s	102.7	-2.53697587371526	-44.2792383219997	0	3.8	1.3	-52.1	307.9	Follow Yaw	0	0	-54.6	305.4	30
14	3/1/2024	7:43:30.03 AM	1m 42.8s	102.8	-2.53697586780044	-44.279238344733	0	3.8	1.3	-52.1	307.9	Follow Yaw	0	0	-53.6	306.4	30
15	3/1/2024	7:43:30.13 AM	1m 42.9s	102.9	-2.53697586464717	-44.2792383798878	0	3.8	1.3	-52.1	307.9	Follow Yaw	0	0	-53.2	306.8	30
16	3/1/2024	7:43:30.23 AM	1m 43.0s	103.0	-2.53697585937426	-44.2792383913316	0	3.8	1.3	-52.1	307.9	Follow Yaw	0	0	-52.9	307.1	30
17	3/1/2024	7:43:30.34 AM	1m 43.1s	103.1	-2.53697585645701	-44.2792383748626	0	3.8	1.3	-52.1	307.9	Follow Yaw	0	0	-52.8	307.2	30
18	3/1/2024	7:43:30.44 AM	1m 43.2s	103.2	-2.53697585131866	-44.2792383552164	0	3.8	1.3	-52.1	307.9	Follow Yaw	0	0	-52.7	307.3	30
19	3/1/2024	7:43:30.54 AM	1m 43.3s	103.3	-2.53697584807276	-44.2792383688213	0	3.8	1.3	-52.1	307.9	Follow Yaw	0	0	-52.7	307.3	30
20	3/1/2024	7:43:30.54 AM	1m 43.4s	103.4	-2.53697584338427	-44.2792383744639	0	3.8	1.3	-52.1	307.9	Follow Yaw	0	0	-52.6	307.4	30
21	3/1/2024	7:43:30.65 AM	1m 43.5s	103.5	-2.53697584053174	-44.2792383794483	0	3.8	1.3	-52.1	307.9	Follow Yaw	0	0	-52.6	307.4	30
22	3/1/2024	7:43:30.75 AM	1m 43.6s	103.6	-2.53697583695924	-44.2792383751134	0	3.8	1.3	-52.1	307.9	Follow Yaw	0	0	-52.6	307.4	30
23	3/1/2024	7:43:30.86 AM	1m 43.7s	103.7	-2.53697583440869	-44.2792383737928	0	3.8	1.3	-52.1	307.9	Follow Yaw	0	0	-52.5	307.5	30
24	3/1/2024	7:43:30.96 AM	1m 43.8s	103.8	-2.53697583121786	-44.2792383634231	0	3.8	1.3	-52.1	307.9	Follow Yaw	0	0	-52.5	307.5	30
25	3/1/2024	7:43:31.07 AM	1m 43.9s	103.9	-2.53697582880369	-44.2792383582028	0	3.8	1.3	-52.1	307.9	Follow Yaw	0	0	-52.5	307.5	30
26	3/1/2024	7:43:31.17 AM	1m 44.0s	104.0	-2.53697582686268	-44.279238345254	0	3.8	1.3	-52.1	307.9	Follow Yaw	0	0	-52.5	307.5	30
27	3/1/2024	7:43:31.27 AM	1m 44.1s	104.1	-2.53697582540085	-44.2792383397936	0	3.8	1.3	-52.1	307.9	Follow Yaw	0	0	-52.5	307.5	30
28	3/1/2024	7:43:31.38 AM	1m 44.2s	104.2	-2.53697582457126	-44.279238329486	0	3.8	1.3	-52.1	307.9	Follow Yaw	0	0	-52.5	307.5	30
29	3/1/2024	7:43:31.48 AM	1m 44.3s	104.3	-2.53697582367389	-44.2792383244051	0	3.8	1.3	-52.1	307.9	Follow Yaw	0	0	-52.5	307.5	30
30	3/1/2024	7:43:31.58 AM	1m 44.4s	104.4	-2.53697582351216	-44.2792383151651	0	3.8	1.3	-52.1	307.9	Follow Yaw	0	0	-52.4	307.6	30
31	3/1/2024	7:43:31.69 AM	1m 44.5s	104.5	-2.53697582335522	-44.2792383108453	0	3.8	1.3	-52.1	307.9	Follow Yaw	0	0	-52.4	307.6	30
32	3/1/2024	7:43:31.79 AM	1m 44.6s	104.6	-2.53697582396263	-44.2792383037942	0	3.8	1.3	-52.1	307.9	Follow Yaw	0	0	-52.4	307.6	30
33	3/1/2024	7:43:31.89 AM	1m 44.7s	104.7	-2.53697582387174	-44.2792383009128	0	3.8	1.3	-52.1	307.9	Follow Yaw	0	0	-52.4	307.6	30
34	3/1/2024	7:43:32.00 AM	1m 44.8s	104.8	-2.53697582407275	-44.2792382963207	0	3.7	1.3	-52.1	307.9	Follow Yaw	0	0	-52.4	307.6	30
35	3/1/2024	7:43:32.10 AM	1m 44.9s	104.9	-2.53697582303818	-44.2792382960184	-0.3	3.2	1.2	-52.1	307.9	Follow Yaw	0	0	-52.4	307.6	30
36	3/1/2024	7:43:32.20 AM	1m 45.0s	105.0	-2.53697582138541	-44.2792382966873	-0.3	1.7	1	-52	308	Follow Yaw	0	0	-52.4	307.6	30
37	3/1/2024	7:43:32.30 AM	1m 45.1s	105.1	-2.53697581456478	-44.2792383024157	-0.3	-0.1	-0.1	-52	308	Follow Yaw	0	0	-52.4	307.6	30
38	3/1/2024	7:43:32.40 AM	1m 45.2s	105.2	-2.53697580829832	-44.279238308457	-0.3	-0.9	-0.8	-52.1	307.9	Follow Yaw	0	0	-52.4	307.6	30
39	3/1/2024	7:43:32.51 AM	1m 45.3s	105.3	-2.53697581443145	-44.2792383283433	0	-0.5	-0.1	-52.3	307.7	Follow Yaw	0	0	-52.4	307.6	30
40	3/1/2024	7:43:32.61 AM	1m 45.4s	105.4	-2.53697584565859	-44.2792383341853	0	0.1	0.5	-52.5	307.5	Follow Yaw	0	0	-52.4	307.6	30
41	3/1/2024	7:43:32.72 AM	1m 45.5s	105.5	-2.53697589414684	-44.2792383133407	0	0.3	1.2	-52.5	307.5	Follow Yaw	0	0	-52.4	307.6	30
42	3/1/2024	7:43:32.82 AM	1m 45.6s	105.6	-2.53697593498007	-44.2792382416934	0	0.3	1.2	-52.4	307.6	Follow Yaw	0	0	-52.4	307.6	30
43	3/1/2024	7:43:32.92 AM	1m 45.7s	105.7	-2.53697593792786	-44.2792381415802	0.3	0	0.2	-52.4	307.6	Follow Yaw	0	0	-52.4	307.6	30
44	3/1/2024	7:43:33.03 AM	1m 45.8s	105.8	-2.53697593114976	-44.2792379931747	0.6	-0.3	-0.1	-52.3	307.7	Follow Yaw	0	0	-52.4	307.6	30
45	3/1/2024	7:43:33.13 AM	1m 45.9s	105.9	-2.53697591062048	-44.2792378418407	0.6	-0.9	-0.6	-52.2	307.8	Follow Yaw	0	0	-52.4	307.6	30
46	3/1/2024	7:43:33.23 AM	1m 46.0s	106.0	-2.53697587475767	-44.2792376873981	0.6	-1.2	-1.1	-52.5	307.5	Follow Yaw	0	0	-52.4	307.6	30
47	3/1/2024	7:43:33.33 AM	1m 46.1s	106.1	-2.53697582765706	-44.2792375933905	0.9	-1.2	-1	-52.3	307.7	Follow Yaw	0	0	-52.4	307.6	30
48	3/1/2024	7:43:33.44 AM	1m 46.2s	106.2	-2.53697578091726	-44.2792375499434	0.9	-1	-0.7	-52.3	307.7	Follow Yaw	0	0	-52.4	307.6	30
49	3/1/2024	7:43:33.54 AM	1m 46.3s	106.3	-2.53697574705295	-44.2792375793741	1.3	-0.6	-0.6	-52.5	307.5	Follow Yaw	0	0	-52.4	307.6	30
50	3/1/2024	7:43:33.64 AM	1m 46.4s	106.4	-2.53697571926376	-44.2792376266158	1.6	-0.1	-0.5	-52.3	307.7	Follow Yaw	0	0	-52.4	307.6	30
51	3/1/2024	7:43:33.75 AM	1m 46.5s	106.5	-2.53697570159178	-44.279237637155	2.2	0	-0.4	-52.4	307.6	Follow Yaw	0	0	-52.4	307.6	30
52	3/1/2024	7:43:33.85 AM	1m 46.6s	106.6	-2.53697569666757	-44.2792376669115	2.9	-0.2	-0.9	-52.3	307.7	Follow Yaw	0	0	-52.4	307.6	30
53	3/1/2024	7:43:33.85 AM	1m 46.7s	106.7	-2.5369756944653	-44.2792377013288	3.9	-0.1	-1.6	-52.4	307.6	Follow Yaw	0	0	-52.4	307.6	30
54	3/1/2024	7:43:33.95 AM	1m 46.8s	106.8	-2.53697571412612	-44.2792377560783	4.9	0.2	-1.5	-52.5	307.5	Follow Yaw	0	0	-52.4	307.6	30
55	3/1/2024	7:43:34.05 AM	1m 46.9s	106.9	-2.53697574513892	-44.2792377963869	5.5	0.4	-1.2	-52.3	307.7	Follow Yaw	0	0	-52.4	307.6	30
56	3/1/2024	7:43:34.16 AM	1m 47.0s	107.0	-2.5369757936178	-44.2792378395468	6.5	0.5	-1.1	-52.5	307.5	Follow Yaw	0	0	-52.4	307.6	30
57	3/1/2024	7:43:34.26 AM	1m 47.1s	107.1	-2.53697583870697	-44.2792378639351	7.2	0.3	-1	-52.4	307.6	Follow Yaw	0	0	-52.4	307.6	30
58	3/1/2024	7:43:34.36 AM	1m 47.2s	107.2	-2.53697588856341	-44.2792378709584	7.8	0.1	-1	-52.4	307.6	Follow Yaw	0	0	-52.4	307.6	30
59	3/1/2024	7:43:34.47 AM	1m 47.3s	107.3	-2.53697592523862	-44.2792378494771	8.2	0	-1	-52.4	307.6	Follow Yaw	0	0	-52.4	307.6	30
60	3/1/2024	7:43:34.57 AM	1m 47.4s	107.4	-2.53697596670399	-44.2792378194675	8.5	0.1	-1	-52.4	307.6	Follow Yaw	0	0	-52.4	307.6	30
61	3/1/2024	7:43:34.67 AM	1m 47.5s	107.5	-2.5369760142341	-44.2792377999671	8.8	0.3	-0.5	-52.4	307.6	Follow Yaw	0	0	-52.4	307.6	30
62	3/1/2024	7:43:34.78 AM	1m 47.6s	107.6	-2.53697606938848	-44.2792377940244	8.8	0	-0.3	-52.2	307.8	Follow Yaw	0	0	-52.4	307.6	30
63	3/1/2024	7:43:34.88 AM	1m 47.7s	107.7	-2.53697611711329	-44.2792378281801	8.5	-0.3	-0.5	-52.2	307.8	Follow Yaw	0	0	-52.4	307.6	30
64	3/1/2024	7:43:34.98 AM	1m 47.8s	107.8	-2.53697616149398	-44.2792378460769	8.5	-0.6	-0.7	-52.1	307.9	Follow Yaw	0	0	-52.4	307.6	30
65	3/1/2024	7:43:35.08 AM	1m 47.9s	107.9	-2.5369761979122	-44.279237817611	8.2	-0.4	-0.6	-52.4	307.6	Follow Yaw	0	0	-52.4	307.6	30
66	3/1/2024	7:43:35.19 AM	1m 48.0s	108.0	-2.53697622116791	-44.2792378201021	8.2	-0.4	-0.4	-52.2	307.8	Follow Yaw	0	0	-52.4	307.6	30
67	3/1/2024	7:43:35.29 AM	1m 48.1s	108.1	-2.53697622180015	-44.2792378785948	8.2	-0.3	-0.6	-52.2	307.8	Follow Yaw	0	0	-52.4	307.6	30
68	3/1/2024	7:43:35.40 AM	1m 48.2s	108.2	-2.53697620749824	-44.2792379493759	8.2	-0.3	-0.6	-52.4	307.6	Follow Yaw	0	0	-52.4	307.6	30
69	3/1/2024	7:43:35.50 AM	1m 48.3s	108.3	-2.5369761870917	-44.2792380055961	8.5	-0.1	-0.5	-52.4	307.6	Follow Yaw	0	0	-52.4	307.6	30
70	3/1/2024	7:43:35.60 AM	1m 48.4s	108.4	-2.5369761535144	-44.279238090278	8.5	0.1	-0.3	-52.4	307.6	Follow Yaw	0	0	-52.4	307.6	30
71	3/1/2024	7:43:35.70 AM	1m 48.5s	108.5	-2.53697611868677	-44.2792381916003	8.5	0.3	-0.5	-52.3	307.7	Follow Yaw	0	0	-52.4	307.6	30
72	3/1/2024	7:43:35.81 AM	1m 48.6s	108.6	-2.53697605338637	-44.2792383004112	8.8	0.5	-1	-52.4	307.6	Follow Yaw	0	0	-52.4	307.6	30
73	3/1/2024	7:43:35.91 AM	1m 48.7s	108.7	-2.53697596749195	-44.2792383853417	8.8	0.4	-1.1	-52.3	307.7	Follow Yaw	0	0	-52.4	307.6	30
74	3/1/2024	7:43:36.01 AM	1m 48.8s	108.8	-2.53697587197242	-44.2792384734366	8.8	0.3	-1	-52.2	307.8	Follow Yaw	0	0	-52.4	307.6	30
75	3/1/2024	7:43:36.12 AM	1m 48.9s	108.9	-2.53697580099791	-44.2792385511853	8.8	0.4	-0.7	-52.4	307.6	Follow Yaw	0	0	-52.4	307.6	30
76	3/1/2024	7:43:36.22 AM	1m 49.0s	109.0	-2.53697572392111	-44.2792386262906	8.8	0.5	-0.7	-52.1	307.9	Follow Yaw	0	0	-52.4	307.6	30
77	3/1/2024	7:43:36.32 AM	1m 49.1s	109.1	-2.53697566215881	-44.2792386941432	8.8	0.7	-0.8	-52.3	307.7	Follow Yaw	0	0	-52.4	307.6	30
78	3/1/2024	7:43:36.43 AM	1m 49.2s	109.2	-2.53697561139583	-44.2792387379098	8.8	0.8	-0.8	-52.1	307.9	Follow Yaw	0	0	-52.4	307.6	30
79	3/1/2024	7:43:36.53 AM	1m 49.3s	109.3	-2.53697558651504	-44.27923876611	8.8	0.7	-1	-52.2	307.8	Follow Yaw	0	0	-52.4	307.6	30
80	3/1/2024	7:43:36.63 AM	1m 49.4s	109.4	-2.53697556628752	-44.2792387702326	8.8	0.7	-0.8	-52.3	307.7	Follow Yaw	0	0	-52.4	307.6	30
81	3/1/2024	7:43:36.74 AM	1m 49.5s	109.5	-2.53697554344056	-44.2792387731461	8.8	0.7	-0.6	-52.1	307.9	Follow Yaw	0	0	-52.4	307.6	30
82	3/1/2024	7:43:36.84 AM	1m 49.6s	109.6	-2.53697553394337	-44.2792387614471	8.8	0.9	-0.4	-52.5	307.5	Follow Yaw	0	0	-52.4	307.6	30
83	3/1/2024	7:43:36.94 AM	1m 49.7s	109.7	-2.53697553573415	-44.2792387757037	8.8	0.8	-0.5	-52.2	307.8	Follow Yaw	0	0	-52.4	307.6	30
84	3/1/2024	7:43:37.04 AM	1m 49.8s	109.8	-2.53697553697594	-44.2792387788423	8.8	0.9	-0.5	-52.4	307.6	Follow Yaw	0	0	-52.4	307.6	30
85	3/1/2024	7:43:37.04 AM	1m 49.9s	109.9	-2.53697552220076	-44.2792387949018	8.8	0.8	-0.4	-52.2	307.8	Follow Yaw	0	0	-52.4	307.6	30
86	3/1/2024	7:43:37.25 AM	1m 50.0s	110.0	-2.53697551353846	-44.279238806127	8.8	0.7	-0.1	-52.3	307.7	Follow Yaw	0	0	-52.4	307.6	30
87	3/1/2024	7:43:37.25 AM	1m 50.1s	110.1	-2.53697551022132	-44.2792388241095	8.8	0.7	-0.1	-52.2	307.8	Follow Yaw	0	0	-52.4	307.6	30
88	3/1/2024	7:43:37.35 AM	1m 50.2s	110.2	-2.53697550354276	-44.2792388423301	8.8	0.7	-0.4	-52.2	307.8	Follow Yaw	0	0	-52.4	307.6	30
89	3/1/2024	7:43:37.46 AM	1m 50.3s	110.3	-2.53697549373403	-44.2792388649605	8.8	0.7	-0.5	-52.5	307.5	Follow Yaw	0	0	-52.4	307.6	30
90	3/1/2024	7:43:37.56 AM	1m 50.4s	110.4	-2.53697547454343	-44.2792388979714	8.8	0.7	-0.4	-52.3	307.7	Follow Yaw	0	0	-52.4	307.6	30
91	3/1/2024	7:43:37.66 AM	1m 50.5s	110.5	-2.53697543876112	-44.2792389314433	8.8	0.4	-0.2	-52.4	307.6	Follow Yaw	0	0	-52.4	307.6	30
92	3/1/2024	7:43:37.77 AM	1m 50.6s	110.6	-2.53697539721031	-44.2792389576646	8.5	0.5	-0.3	-52.2	307.8	Follow Yaw	0	0	-52.4	307.6	30
93	3/1/2024	7:43:37.87 AM	1m 50.7s	110.7	-2.53697536471608	-44.2792389598342	8.5	0.5	-0.6	-52.5	307.5	Follow Yaw	0	0	-52.4	307.6	30
94	3/1/2024	7:43:37.98 AM	1m 50.8s	110.8	-2.53697533084923	-44.279238971546	8.5	0.5	-0.8	-52.2	307.8	Follow Yaw	0	0	-52.4	307.6	30
95	3/1/2024	7:43:38.08 AM	1m 50.9s	110.9	-2.53697529616281	-44.27923899563	8.5	0.5	-1	-52.4	307.6	Follow Yaw	0	0	-52.4	307.6	30
96	3/1/2024	7:43:38.18 AM	1m 51.0s	111.0	-2.53697525487382	-44.2792390278477	8.5	0.5	-1.2	-52.4	307.6	Follow Yaw	0	0	-52.4	307.6	30
97	3/1/2024	7:43:38.29 AM	1m 51.1s	111.1	-2.53697520133099	-44.2792390530657	8.5	0.8	-1	-52.3	307.7	Follow Yaw	0	0	-52.4	307.6	30
98	3/1/2024	7:43:38.39 AM	1m 51.2s	111.2	-2.53697516154153	-44.279239090851	8.5	0.6	-1.3	-52.5	307.5	Follow Yaw	0	0	-52.4	307.6	30
99	3/1/2024	7:43:38.49 AM	1m 51.3s	111.3	-2.53697514073256	-44.2792391368857	8.5	0.7	-1.1	-52.2	307.8	Follow Yaw	0	0	-52.4	307.6	30
100	3/1/2024	7:43:38.60 AM	1m 51.4s	111.4	-2.5369751234446	-44.2792391933803	8.5	0.9	-1.3	-52.5	307.5	Follow Yaw	0	0	-52.4	307.6	30
101	3/1/2024	7:43:38.70 AM	1m 51.5s	111.5	-2.53697509600486	-44.2792392412245	8.5	0.9	-1.4	-52.4	307.6	Follow Yaw	0	0	-52.4	307.6	30
102	3/1/2024	7:43:38.80 AM	1m 51.6s	111.6	-2.53697507708101	-44.2792392868091	8.5	0.7	-1.5	-52.4	307.6	Follow Yaw	0	0	-52.4	307.6	30
103	3/1/2024	7:43:38.91 AM	1m 51.7s	111.7	-2.53697505574321	-44.2792393123122	8.5	0.6	-1.4	-52.4	307.6	Follow Yaw	0	0	-52.4	307.6	30
104	3/1/2024	7:43:39.01 AM	1m 51.8s	111.8	-2.53697504610058	-44.2792393542051	8.5	0.6	-1.1	-52.3	307.7	Follow Yaw	0	0	-52.4	307.6	30
105	3/1/2024	7:43:39.11 AM	1m 51.9s	111.9	-2.53697504407983	-44.2792394056188	8.5	0.6	-1.3	-52.5	307.5	Follow Yaw	0	0	-52.4	307.6	30
106	3/1/2024	7:43:39.21 AM	1m 52.0s	112.0	-2.53697505166116	-44.2792394661074	8.5	0.6	-1.2	-52.2	307.8	Follow Yaw	0	0	-52.4	307.6	30
107	3/1/2024	7:43:39.32 AM	1m 52.1s	112.1	-2.5369750589891	-44.2792395292179	8.5	0.7	-1.2	-52.4	307.6	Follow Yaw	0	0	-52.4	307.6	30
108	3/1/2024	7:43:39.42 AM	1m 52.2s	112.2	-2.53697507565943	-44.2792395895607	8.5	0.8	-1	-52.4	307.6	Follow Yaw	0	0	-52.4	307.6	30
109	3/1/2024	7:43:39.52 AM	1m 52.3s	112.3	-2.53697508933796	-44.279239627869	8.5	1	-0.8	-52.5	307.5	Follow Yaw	0	0	-52.4	307.6	30
110	3/1/2024	7:43:39.63 AM	1m 52.4s	112.4	-2.53697510954486	-44.2792396602968	8.5	0.7	-0.9	-52.6	307.4	Follow Yaw	0	0	-52.4	307.6	30
111	3/1/2024	7:43:39.73 AM	1m 52.5s	112.5	-2.53697512416488	-44.2792397004424	8.5	0.8	-0.9	-52.4	307.6	Follow Yaw	0	0	-52.4	307.6	30
112	3/1/2024	7:43:39.83 AM	1m 52.6s	112.6	-2.53697515649723	-44.2792397416793	8.5	0.7	-0.6	-52.6	307.4	Follow Yaw	0	0	-52.4	307.6	30
113	3/1/2024	7:43:39.94 AM	1m 52.7s	112.7	-2.53697519910404	-44.2792397880528	8.5	0.6	-0.6	-52.4	307.6	Follow Yaw	0	0	-52.4	307.6	30
114	3/1/2024	7:43:40.04 AM	1m 52.8s	112.8	-2.53697524262634	-44.2792398381008	8.5	0.7	-0.6	-52.3	307.7	Follow Yaw	0	0	-52.4	307.6	30
115	3/1/2024	7:43:40.14 AM	1m 52.9s	112.9	-2.53697526654773	-44.2792398940273	8.5	0.8	-0.6	-52.4	307.6	Follow Yaw	0	0	-52.4	307.6	30
116	3/1/2024	7:43:40.24 AM	1m 53.0s	113.0	-2.53697530071676	-44.2792399540721	8.5	0.9	-0.2	-52.4	307.6	Follow Yaw	0	0	-52.4	307.6	30
117	3/1/2024	7:43:40.24 AM	1m 53.1s	113.1	-2.53697533634263	-44.2792400135145	8.5	1	-0.1	-52.4	307.6	Follow Yaw	0	0	-52.4	307.6	30
118	3/1/2024	7:43:40.35 AM	1m 53.2s	113.2	-2.53697536449217	-44.2792400679875	8.5	1.2	0	-52.4	307.6	Follow Yaw	0	0	-52.4	307.6	30
119	3/1/2024	7:43:40.45 AM	1m 53.3s	113.3	-2.53697536967337	-44.2792401126266	8.5	1.2	-0.3	-52.5	307.5	Follow Yaw	0	0	-52.4	307.6	30
120	3/1/2024	7:43:40.55 AM	1m 53.4s	113.4	-2.53697536799047	-44.2792401467587	8.5	1	-0.3	-52.3	307.7	Follow Yaw	0	0	-52.4	307.6	30
121	3/1/2024	7:43:40.65 AM	1m 53.5s	113.5	-2.53697535849028	-44.2792401756428	8.5	1	-0.5	-52.4	307.6	Follow Yaw	0	0	-52.4	307.6	30
122	3/1/2024	7:43:40.76 AM	1m 53.6s	113.6	-2.53697534179344	-44.2792402035577	8.5	1	-0.7	-52.3	307.7	Follow Yaw	0	0	-52.4	307.6	30
123	3/1/2024	7:43:40.86 AM	1m 53.7s	113.7	-2.53697532411485	-44.2792402365601	8.5	1.2	-0.6	-52.5	307.5	Follow Yaw	0	0	-52.4	307.6	30
124	3/1/2024	7:43:40.96 AM	1m 53.8s	113.8	-2.53697530409059	-44.2792402609635	8.5	1.2	-0.4	-52.3	307.7	Follow Yaw	0	0	-52.4	307.6	30
125	3/1/2024	7:43:41.06 AM	1m 53.9s	113.9	-2.53697528552475	-44.2792402690951	8.5	0.8	0.3	-52.2	307.8	Follow Yaw	0	0	-52.4	307.6	30
126	3/1/2024	7:43:41.17 AM	1m 54.0s	114.0	-2.53697524244416	-44.2792402544655	8.8	0.6	-0.3	-52.3	307.7	Follow Yaw	0	0	-52.4	307.6	30
127	3/1/2024	7:43:41.27 AM	1m 54.1s	114.1	-2.53697517478333	-44.2792402358055	9.1	0.9	-0.9	-52.5	307.5	Follow Yaw	0	0	-52.4	307.6	30
128	3/1/2024	7:43:41.37 AM	1m 54.2s	114.2	-2.53697512008242	-44.2792402285357	9.5	1.5	-0.9	-52.5	307.5	Follow Yaw	0	0	-52.4	307.6	30
129	3/1/2024	7:43:41.48 AM	1m 54.3s	114.3	-2.53697510233177	-44.2792402375313	10.1	2.2	-0.9	-52.7	307.3	Follow Yaw	0	0	-52.4	307.6	30
130	3/1/2024	7:43:41.58 AM	1m 54.4s	114.4	-2.53697511139101	-44.2792402101394	11.1	1.7	-0.8	-52.7	307.3	Follow Yaw	0	0	-52.4	307.6	30
131	3/1/2024	7:43:41.69 AM	1m 54.5s	114.5	-2.53697513518654	-44.2792401446663	12.1	1.5	-1	-52.9	307.1	Follow Yaw	0	0	-52.4	307.6	30
132	3/1/2024	7:43:41.79 AM	1m 54.6s	114.6	-2.53697519917666	-44.2792400542476	13.1	0.7	-1.5	-52.6	307.4	Follow Yaw	0	0	-52.4	307.6	30
133	3/1/2024	7:43:41.89 AM	1m 54.7s	114.7	-2.53697529087057	-44.279239962416	14.4	0.2	-0.2	-52.5	307.5	Follow Yaw	0	0	-52.4	307.6	30
134	3/1/2024	7:43:42.00 AM	1m 54.8s	114.8	-2.53697536698959	-44.2792398576613	15.4	0.7	-2	-52.5	307.5	Follow Yaw	0	0	-52.4	307.6	30
135	3/1/2024	7:43:42.10 AM	1m 54.9s	114.9	-2.53697540644292	-44.2792397531339	16.4	0.8	-2.4	-52.6	307.4	Follow Yaw	0	0	-52.4	307.6	30
136	3/1/2024	7:43:42.20 AM	1m 55.0s	115.0	-2.53697547318887	-44.2792396679568	17.3	0.4	-2	-52.5	307.5	Follow Yaw	0	0	-52.4	307.6	30
137	3/1/2024	7:43:42.31 AM	1m 55.1s	115.1	-2.53697556948121	-44.2792396309819	18.0	0	-1.5	-52.5	307.5	Follow Yaw	0	0	-52.4	307.6	30
138	3/1/2024	7:43:42.41 AM	1m 55.2s	115.2	-2.53697567083841	-44.279239621236	18.7	-0.3	-1.3	-52.5	307.5	Follow Yaw	0	0	-52.4	307.6	30
139	3/1/2024	7:43:42.52 AM	1m 55.3s	115.3	-2.53697575654657	-44.2792396263362	19.0	-0.6	-1.8	-52.5	307.5	Follow Yaw	0	0	-52.4	307.6	30
140	3/1/2024	7:43:42.62 AM	1m 55.4s	115.4	-2.53697584927567	-44.2792396563243	19.3	-0.8	-1.7	-52.5	307.5	Follow Yaw	0	0	-52.4	307.6	30
141	3/1/2024	7:43:42.72 AM	1m 55.5s	115.5	-2.53697594784956	-44.2792396862631	19.3	-0.8	-1.6	-52.3	307.7	Follow Yaw	0	0	-52.4	307.6	30
142	3/1/2024	7:43:42.83 AM	1m 55.6s	115.6	-2.53697606163474	-44.2792397194905	19.6	-0.8	-1.2	-52.3	307.7	Follow Yaw	0	0	-52.4	307.6	30
143	3/1/2024	7:43:42.93 AM	1m 55.7s	115.7	-2.53697617847937	-44.2792397225005	19.6	-0.8	-1.1	-52.2	307.8	Follow Yaw	0	0	-52.4	307.6	30
144	3/1/2024	7:43:43.03 AM	1m 55.8s	115.8	-2.53697629274545	-44.2792397646978	19.3	-0.3	-0.5	-52.3	307.7	Follow Yaw	0	0	-52.4	307.6	30
145	3/1/2024	7:43:43.13 AM	1m 55.9s	115.9	-2.53697637561452	-44.2792398610786	19.3	-0.1	-1.5	-52.1	307.9	Follow Yaw	0	0	-52.4	307.6	30
146	3/1/2024	7:43:43.24 AM	1m 56.0s	116.0	-2.53697646054337	-44.2792400043817	19.3	0.4	-1.4	-52.2	307.8	Follow Yaw	0	0	-52.4	307.6	30
147	3/1/2024	7:43:43.34 AM	1m 56.1s	116.1	-2.53697653793823	-44.2792401664885	19.3	0.9	-0.9	-52.3	307.7	Follow Yaw	0	0	-52.4	307.6	30
148	3/1/2024	7:43:43.34 AM	1m 56.2s	116.2	-2.53697661682921	-44.2792403541478	19.3	1	-0.1	-52.4	307.6	Follow Yaw	0	0	-52.4	307.6	30
149	3/1/2024	7:43:43.55 AM	1m 56.3s	116.3	-2.53697667096317	-44.2792405163468	19.3	0.7	1.4	-52.4	307.6	Follow Yaw	0	0	-52.4	307.6	30
150	3/1/2024	7:43:43.55 AM	1m 56.4s	116.4	-2.53697668132394	-44.2792406731498	19.6	1	1.2	-52.6	307.4	Follow Yaw	0	0	-52.4	307.6	30
151	3/1/2024	7:43:43.65 AM	1m 56.5s	116.5	-2.53697663471564	-44.2792407949587	19.6	1.8	-0.1	-52.7	307.3	Follow Yaw	0	0	-52.4	307.6	30
152	3/1/2024	7:43:43.75 AM	1m 56.6s	116.6	-2.53697657338599	-44.2792408714339	20.0	2	-0.4	-52.6	307.4	Follow Yaw	0	0	-52.4	307.6	30
153	3/1/2024	7:43:43.85 AM	1m 56.7s	116.7	-2.53697652923216	-44.2792408653733	20.0	1.5	0.2	-52.5	307.5	Follow Yaw	0	0	-52.4	307.6	30
154	3/1/2024	7:43:43.96 AM	1m 56.8s	116.8	-2.53697648894751	-44.2792408272793	20.0	0.4	0.3	-52.6	307.4	Follow Yaw	0	0	-52.4	307.6	30
155	3/1/2024	7:43:44.06 AM	1m 56.9s	116.9	-2.53697645572501	-44.2792408030131	20.0	-0.2	-0.3	-52.6	307.4	Follow Yaw	0	0	-52.4	307.6	30
156	3/1/2024	7:43:44.16 AM	1m 57.0s	117.0	-2.53697639352781	-44.2792407423466	19.6	-0.5	-1	-52.5	307.5	Follow Yaw	0	0	-52.4	307.6	30
157	3/1/2024	7:43:44.27 AM	1m 57.1s	117.1	-2.53697630648137	-44.2792406573603	19.6	0	-1.4	-52.4	307.6	Follow Yaw	0	0	-52.4	307.6	30
158	3/1/2024	7:43:44.37 AM	1m 57.2s	117.2	-2.53697619880947	-44.2792405627503	19.6	0	-0.4	-52.7	307.3	Follow Yaw	0	0	-52.4	307.6	30
159	3/1/2024	7:43:44.47 AM	1m 57.3s	117.3	-2.53697606967987	-44.2792404920871	19.6	0.2	-0.3	-52.5	307.5	Follow Yaw	0	0	-52.4	307.6	30
160	3/1/2024	7:43:44.58 AM	1m 57.4s	117.4	-2.53697592403866	-44.2792403813018	19.6	0.4	-1.2	-52.6	307.4	Follow Yaw	0	0	-52.4	307.6	30
161	3/1/2024	7:43:44.68 AM	1m 57.5s	117.5	-2.53697580256762	-44.2792402625328	19.6	0.2	-1.8	-52.5	307.5	Follow Yaw	0	0	-52.4	307.6	30
162	3/1/2024	7:43:44.78 AM	1m 57.6s	117.6	-2.53697568083716	-44.2792401214528	19.6	0.3	-2.2	-52.6	307.4	Follow Yaw	0	0	-52.4	307.6	30
163	3/1/2024	7:43:44.88 AM	1m 57.7s	117.7	-2.53697555426014	-44.279239999616	19.6	0.2	-2.1	-52.5	307.5	Follow Yaw	0	0	-52.4	307.6	30
164	3/1/2024	7:43:44.99 AM	1m 57.8s	117.8	-2.53697542746583	-44.2792398807762	19.6	0.3	-2.2	-52.4	307.6	Follow Yaw	0	0	-52.4	307.6	30
165	3/1/2024	7:43:45.09 AM	1m 57.9s	117.9	-2.53697530913785	-44.2792398064684	19.6	0.3	-2.5	-52.6	307.4	Follow Yaw	0	0	-52.4	307.6	30
166	3/1/2024	7:43:45.19 AM	1m 58.0s	118.0	-2.53697519615579	-44.2792397451459	19.6	0.3	-2.1	-52.4	307.6	Follow Yaw	0	0	-52.4	307.6	30
167	3/1/2024	7:43:45.30 AM	1m 58.1s	118.1	-2.53697510257181	-44.2792397076265	19.6	0	-2.3	-52.4	307.6	Follow Yaw	0	0	-52.4	307.6	30
168	3/1/2024	7:43:45.40 AM	1m 58.2s	118.2	-2.53697501970223	-44.2792397110909	19.6	0.3	-2.8	-52.3	307.7	Follow Yaw	0	0	-52.4	307.6	30
169	3/1/2024	7:43:45.50 AM	1m 58.3s	118.3	-2.53697496143605	-44.2792397614606	19.6	0.7	-3.2	-52.4	307.6	Follow Yaw	0	0	-52.4	307.6	30
170	3/1/2024	7:43:45.60 AM	1m 58.4s	118.4	-2.53697492353215	-44.2792398457672	19.6	0.7	-2.7	-52.5	307.5	Follow Yaw	0	0	-52.4	307.6	30
171	3/1/2024	7:43:45.71 AM	1m 58.5s	118.5	-2.53697488691293	-44.2792399226434	19.6	0.7	-2.2	-52.6	307.4	Follow Yaw	0	0	-52.4	307.6	30
172	3/1/2024	7:43:45.81 AM	1m 58.6s	118.6	-2.53697486282511	-44.2792400275631	19.6	1.2	-1.4	-52.4	307.6	Follow Yaw	0	0	-52.4	307.6	30
173	3/1/2024	7:43:45.92 AM	1m 58.7s	118.7	-2.53697483918881	-44.2792401199221	19.6	0.8	-1.6	-52.3	307.7	Follow Yaw	0	0	-52.4	307.6	30
174	3/1/2024	7:43:46.02 AM	1m 58.8s	118.8	-2.53697480485693	-44.2792402045696	19.6	0.9	-2.5	-52.2	307.8	Follow Yaw	0	0	-52.4	307.6	30
175	3/1/2024	7:43:46.12 AM	1m 58.9s	118.9	-2.53697476528986	-44.27924025647	19.6	1.5	-2.1	-52.2	307.8	Follow Yaw	0	0	-52.4	307.6	30
176	3/1/2024	7:43:46.22 AM	1m 59.0s	119.0	-2.53697472776314	-44.2792403012249	19.6	1.2	-2.2	-52.4	307.6	Follow Yaw	0	0	-52.4	307.6	30
177	3/1/2024	7:43:46.33 AM	1m 59.1s	119.1	-2.53697469662009	-44.279240341154	19.6	1.3	-2.3	-52.5	307.5	Follow Yaw	0	0	-52.4	307.6	30
178	3/1/2024	7:43:46.43 AM	1m 59.2s	119.2	-2.53697468328165	-44.279240367519	19.6	1.2	-1.9	-52.5	307.5	Follow Yaw	0	0	-52.4	307.6	30
179	3/1/2024	7:43:46.53 AM	1m 59.3s	119.3	-2.53697470236178	-44.2792403824359	19.6	1.4	-1.6	-52.7	307.3	Follow Yaw	0	0	-52.4	307.6	30
180	3/1/2024	7:43:46.63 AM	1m 59.4s	119.4	-2.53697473969477	-44.2792403645498	19.6	1.2	-2.2	-52.3	307.7	Follow Yaw	0	0	-52.4	307.6	30
181	3/1/2024	7:43:46.74 AM	1m 59.5s	119.5	-2.53697480075732	-44.2792403239968	19.6	0.2	-1.6	-52.3	307.7	Follow Yaw	0	0	-52.4	307.6	30
182	3/1/2024	7:43:46.84 AM	1m 59.6s	119.6	-2.53697486884213	-44.2792402710181	19.6	-0.1	-2	-52.5	307.5	Follow Yaw	0	0	-52.4	307.6	30
183	3/1/2024	7:43:46.94 AM	1m 59.7s	119.7	-2.53697492659124	-44.2792402343841	19.6	-0.3	-2.1	-52.4	307.6	Follow Yaw	0	0	-52.4	307.6	30
184	3/1/2024	7:43:47.05 AM	1m 59.8s	119.8	-2.5369749898297	-44.2792402089174	19.6	-0.7	-2.4	-52.5	307.5	Follow Yaw	0	0	-52.4	307.6	30
185	3/1/2024	7:43:47.05 AM	1m 59.9s	119.9	-2.53697506188214	-44.2792402205284	19.6	-0.6	-2.1	-52.2	307.8	Follow Yaw	0	0	-52.4	307.6	30
186	3/1/2024	7:43:47.15 AM	2m 0.0s	120.0	-2.53697515001475	-44.2792402538481	20.0	-0.6	-1.1	-52.4	307.6	Follow Yaw	0	0	-52.4	307.6	30
187	3/1/2024	7:43:47.25 AM	2m 0.1s	120.1	-2.53697525592579	-44.2792402857313	20.0	-1	-0.3	-52.3	307.7	Follow Yaw	0	0	-52.4	307.6	30
188	3/1/2024	7:43:47.35 AM	2m 0.2s	120.2	-2.53697533982597	-44.2792402997906	20.0	-1.4	-0.8	-52.4	307.6	Follow Yaw	0	0	-52.4	307.6	30
189	3/1/2024	7:43:47.46 AM	2m 0.3s	120.3	-2.53697538258678	-44.2792402966906	20.0	-1.4	-1.7	-52.5	307.5	Follow Yaw	0	0	-52.4	307.6	30
190	3/1/2024	7:43:47.56 AM	2m 0.4s	120.4	-2.53697540168257	-44.2792402834653	20.0	-1.3	-1.8	-52.3	307.7	Follow Yaw	0	0	-52.4	307.6	30
191	3/1/2024	7:43:47.66 AM	2m 0.5s	120.5	-2.53697541046813	-44.2792402653133	20.0	-0.9	-1.9	-52.3	307.7	Follow Yaw	0	0	-52.4	307.6	30
192	3/1/2024	7:43:47.76 AM	2m 0.6s	120.6	-2.53697541403305	-44.2792402422413	20.0	-0.8	-1.9	-52.3	307.7	Follow Yaw	0	0	-52.4	307.6	30
193	3/1/2024	7:43:47.87 AM	2m 0.7s	120.7	-2.53697543319419	-44.2792402351837	20.0	-0.7	-2.1	-52.4	307.6	Follow Yaw	0	0	-52.4	307.6	30
194	3/1/2024	7:43:47.97 AM	2m 0.8s	120.8	-2.53697545289653	-44.2792402350358	20.0	-0.6	-1.7	-52.5	307.5	Follow Yaw	0	0	-52.4	307.6	30
195	3/1/2024	7:43:48.07 AM	2m 0.9s	120.9	-2.536975477015	-44.2792402686792	20.0	0	-1.4	-52.6	307.4	Follow Yaw	0	0	-52.4	307.6	30
196	3/1/2024	7:43:48.18 AM	2m 1.0s	121.0	-2.53697551439054	-44.2792402985579	20.0	-0.7	-0.7	-52.7	307.3	Follow Yaw	0	0	-52.4	307.6	30
197	3/1/2024	7:43:48.28 AM	2m 1.1s	121.1	-2.53697557144715	-44.2792403413062	19.6	-0.6	-0.1	-52.8	307.2	Follow Yaw	0	0	-52.4	307.6	30
198	3/1/2024	7:43:48.38 AM	2m 1.2s	121.2	-2.53697562329283	-44.2792403508635	19.6	-0.6	0	-52.7	307.3	Follow Yaw	0	0	-52.4	307.6	30
199	3/1/2024	7:43:48.49 AM	2m 1.3s	121.3	-2.53697566610544	-44.2792403241276	19.6	-0.8	-0.4	-52.6	307.4	Follow Yaw	0	0	-52.4	307.6	30
200	3/1/2024	7:43:48.59 AM	2m 1.4s	121.4	-2.53697570625106	-44.2792402676394	19.6	-1.2	-0.8	-52.5	307.5	Follow Yaw	0	0	-52.4	307.6	30
201	3/1/2024	7:43:48.70 AM	2m 1.5s	121.5	-2.5369757449545	-44.2792402132479	19.6	-1.4	-0.9	-52.3	307.7	Follow Yaw	0	0	-52.4	307.6	30
202	3/1/2024	7:43:48.80 AM	2m 1.6s	121.6	-2.53697578786257	-44.2792401542129	19.6	-1.1	-0.9	-52.6	307.4	Follow Yaw	0	0	-52.4	307.6	30
203	3/1/2024	7:43:48.90 AM	2m 1.7s	121.7	-2.53697583980088	-44.2792401112974	19.6	-1.3	-0.9	-52.5	307.5	Follow Yaw	0	0	-52.4	307.6	30
204	3/1/2024	7:43:49.01 AM	2m 1.8s	121.8	-2.53697590329085	-44.2792400484613	19.6	-1.3	-0.4	-52.5	307.5	Follow Yaw	0	0	-52.4	307.6	30
205	3/1/2024	7:43:49.11 AM	2m 1.9s	121.9	-2.53697596807911	-44.2792399734846	19.6	-1.5	0	-52.8	307.2	Follow Yaw	0	0	-52.4	307.6	30
206	3/1/2024	7:43:49.21 AM	2m 2.0s	122.0	-2.53697604490309	-44.2792398725953	19.6	-2.4	-0.5	-52.8	307.2	Follow Yaw	0	0	-52.4	307.6	30
207	3/1/2024	7:43:49.32 AM	2m 2.1s	122.1	-2.53697613059182	-44.2792397795846	19.6	-2.5	0	-52.8	307.2	Follow Yaw	0	0	-52.4	307.6	30
208	3/1/2024	7:43:49.42 AM	2m 2.2s	122.2	-2.53697620919742	-44.279239684608	19.6	-2.6	0.3	-53	307	Follow Yaw	0	0	-52.4	307.6	30
209	3/1/2024	7:43:49.52 AM	2m 2.3s	122.3	-2.53697625410817	-44.2792395912393	19.6	-4	-0.9	-53	307	Follow Yaw	0	0	-52.4	307.6	30
210	3/1/2024	7:43:49.62 AM	2m 2.4s	122.4	-2.53697628507751	-44.2792395033824	19.6	-3.9	-1.6	-52.9	307.1	Follow Yaw	0	0	-52.4	307.6	30
211	3/1/2024	7:43:49.73 AM	2m 2.5s	122.5	-2.53697631138116	-44.2792394309848	19.6	-4.3	-2.1	-52.8	307.2	Follow Yaw	-0.6	0	-52.4	307.6	30
212	3/1/2024	7:43:49.83 AM	2m 2.6s	122.6	-2.53697633099068	-44.2792393995217	19.6	-4.3	-2.4	-52.8	307.2	Follow Yaw	-2.5	0	-52.4	307.6	30
213	3/1/2024	7:43:49.94 AM	2m 2.7s	122.7	-2.53697635044773	-44.2792394233248	19.6	-3.9	-2.7	-52.6	307.4	Follow Yaw	-3.9	0	-52.4	307.6	30
214	3/1/2024	7:43:50.04 AM	2m 2.8s	122.8	-2.53697637950426	-44.2792395016802	19.6	-3.8	-1.5	-52.5	307.5	Follow Yaw	-4	0	-52.4	307.6	30
215	3/1/2024	7:43:50.14 AM	2m 2.9s	122.9	-2.53697642339246	-44.2792396134903	19.6	-3.8	-0.8	-52.4	307.6	Follow Yaw	-4	0	-52.4	307.6	30
216	3/1/2024	7:43:50.24 AM	2m 3.0s	123.0	-2.53697648321192	-44.2792397659476	19.6	-3.8	0	-52.2	307.8	Follow Yaw	-4	0	-52.4	307.6	30
217	3/1/2024	7:43:50.35 AM	2m 3.1s	123.1	-2.53697656353228	-44.2792399377768	19.6	-3.7	0.9	-52	308	Follow Yaw	-4	0	-52.4	307.6	30
218	3/1/2024	7:43:50.45 AM	2m 3.2s	123.2	-2.53697661885663	-44.2792401220509	19.6	-3.3	0.4	-52	308	Follow Yaw	-4	0	-52.4	307.6	30
219	3/1/2024	7:43:50.45 AM	2m 3.3s	123.3	-2.5369766388474	-44.2792402848009	19.6	-3.1	0.3	-52.1	307.9	Follow Yaw	-4	0	-52.4	307.6	30
220	3/1/2024	7:43:50.55 AM	2m 3.4s	123.4	-2.53697663763503	-44.2792404557146	19.6	-2.6	0	-52.4	307.6	Follow Yaw	-4	0	-52.4	307.6	30
221	3/1/2024	7:43:50.65 AM	2m 3.5s	123.5	-2.53697661793432	-44.2792406209536	19.6	-2.5	0.4	-52.5	307.5	Follow Yaw	-4.2	0	-52.4	307.6	30
222	3/1/2024	7:43:50.76 AM	2m 3.6s	123.6	-2.53697658849958	-44.2792408033261	19.6	-2.1	1	-52.5	307.5	Follow Yaw	-7.5	0	-52.4	307.6	30
223	3/1/2024	7:43:50.96 AM	2m 3.7s	123.7	-2.53697655776616	-44.2792409887623	19.6	-1.9	0.9	-52.2	307.8	Follow Yaw	-13.1	0	-52.4	307.6	30
224	3/1/2024	7:43:50.96 AM	2m 3.8s	123.8	-2.53697651567719	-44.2792411609087	19.6	-1.7	0.7	-52.2	307.8	Follow Yaw	-16.4	0	-52.4	307.6	30
225	3/1/2024	7:43:51.06 AM	2m 3.9s	123.9	-2.53697647691636	-44.2792413069774	19.6	-1.6	0.9	-52	308	Follow Yaw	-16.7	0	-52.4	307.6	30
226	3/1/2024	7:43:51.17 AM	2m 4.0s	124.0	-2.53697643397327	-44.2792414289857	19.6	-1.7	0.8	-52.1	307.9	Follow Yaw	-16.7	0	-52.4	307.6	30
227	3/1/2024	7:43:51.27 AM	2m 4.1s	124.1	-2.53697640882888	-44.2792415415697	19.6	-1.7	0.5	-52.1	307.9	Follow Yaw	-16.7	0	-52.4	307.6	30
228	3/1/2024	7:43:51.37 AM	2m 4.2s	124.2	-2.53697638078565	-44.2792416443714	19.6	-1.4	0.6	-51.9	308.1	Follow Yaw	-16.7	0	-52.4	307.6	30
229	3/1/2024	7:43:51.47 AM	2m 4.3s	124.3	-2.53697634246958	-44.2792417234299	19.6	-1.7	0.8	-52.3	307.7	Follow Yaw	-16.7	0	-52.4	307.6	30
230	3/1/2024	7:43:51.58 AM	2m 4.4s	124.4	-2.53697630187756	-44.2792417822892	19.6	-1.3	0.7	-52.2	307.8	Follow Yaw	-16.7	0	-52.4	307.6	30
231	3/1/2024	7:43:51.68 AM	2m 4.5s	124.5	-2.53697626053646	-44.279241817907	19.6	-1.4	0.6	-52.2	307.8	Follow Yaw	-16.7	0	-52.4	307.6	30
232	3/1/2024	7:43:51.78 AM	2m 4.6s	124.6	-2.53697622307441	-44.2792418390711	19.6	-1.6	0.2	-52.4	307.6	Follow Yaw	-16.7	0	-52.4	307.6	30
233	3/1/2024	7:43:51.88 AM	2m 4.7s	124.7	-2.53697618278467	-44.2792418268919	19.6	-1.6	0.1	-52.4	307.6	Follow Yaw	-16.7	0	-52.4	307.6	30
234	3/1/2024	7:43:51.98 AM	2m 4.8s	124.8	-2.53697616450966	-44.2792418156324	19.6	-2.5	0.2	-52.4	307.6	Follow Yaw	-16.7	0	-52.4	307.6	30
235	3/1/2024	7:43:52.08 AM	2m 4.9s	124.9	-2.53697616550464	-44.2792418224991	19.6	-2.1	0.3	-52.4	307.6	Follow Yaw	-16.7	0	-52.4	307.6	30
236	3/1/2024	7:43:52.19 AM	2m 5.0s	125.0	-2.53697616940374	-44.2792418293916	19.6	-1.7	-0.1	-52.4	307.6	Follow Yaw	-16.7	0	-52.4	307.6	30
237	3/1/2024	7:43:52.29 AM	2m 5.1s	125.1	-2.53697615962504	-44.2792418172874	19.6	-2.5	-0.6	-52.5	307.5	Follow Yaw	-16.7	0	-52.4	307.6	30
238	3/1/2024	7:43:52.40 AM	2m 5.2s	125.2	-2.5369761725842	-44.2792418233438	19.6	-2.7	0	-52.5	307.5	Follow Yaw	-16.7	0	-52.4	307.6	30
239	3/1/2024	7:43:52.50 AM	2m 5.3s	125.3	-2.53697620421295	-44.2792418294323	19.6	-2.9	0.2	-52.5	307.5	Follow Yaw	-16.7	0	-52.4	307.6	30
240	3/1/2024	7:43:52.60 AM	2m 5.4s	125.4	-2.53697624156223	-44.2792418455798	19.6	-2.8	0.9	-52.5	307.5	Follow Yaw	-16.7	0	-52.4	307.6	30
241	3/1/2024	7:43:52.70 AM	2m 5.5s	125.5	-2.5369763066658	-44.2792418496681	19.6	-3	0.8	-52.2	307.8	Follow Yaw	-15.9	0	-52.4	307.6	30
242	3/1/2024	7:43:52.81 AM	2m 5.6s	125.6	-2.53697635697861	-44.2792418572144	19.6	-3.4	0.8	-52.2	307.8	Follow Yaw	-14.9	0	-52.4	307.6	30
243	3/1/2024	7:43:52.91 AM	2m 5.7s	125.7	-2.53697640386762	-44.2792418526202	19.6	-3.5	0.6	-52.2	307.8	Follow Yaw	-14.9	0	-52.4	307.6	30
244	3/1/2024	7:43:53.01 AM	2m 5.8s	125.8	-2.53697643839348	-44.2792418609275	19.6	-3.6	0.5	-52.1	307.9	Follow Yaw	-14.5	0	-52.4	307.6	30
245	3/1/2024	7:43:53.12 AM	2m 5.9s	125.9	-2.53697647130983	-44.2792418581062	20.0	-3.6	0.6	-52.2	307.8	Follow Yaw	-14.5	0	-52.4	307.6	30
246	3/1/2024	7:43:53.22 AM	2m 6.0s	126.0	-2.53697648682178	-44.2792418690056	20.0	-3.4	0.6	-52.3	307.7	Follow Yaw	-14.5	0	-52.4	307.6	30
247	3/1/2024	7:43:53.32 AM	2m 6.1s	126.1	-2.53697646793223	-44.2792419098115	20.0	-3.1	0.1	-52.3	307.7	Follow Yaw	-14.5	0	-52.4	307.6	30
248	3/1/2024	7:43:53.42 AM	2m 6.2s	126.2	-2.53697643131016	-44.2792419508061	20.0	-3.1	0.4	-52.6	307.4	Follow Yaw	-14.5	0	-52.4	307.6	30
249	3/1/2024	7:43:53.53 AM	2m 6.3s	126.3	-2.53697637403839	-44.2792419827515	20.0	-3	0.4	-52.4	307.6	Follow Yaw	-14.5	0	-52.4	307.6	30
250	3/1/2024	7:43:53.63 AM	2m 6.4s	126.4	-2.53697629418011	-44.2792420139273	20.0	-2.8	0.5	-52.4	307.6	Follow Yaw	-14.5	0	-52.4	307.6	30
251	3/1/2024	7:43:53.73 AM	2m 6.5s	126.5	-2.53697621248402	-44.2792420481045	20.0	-2.6	0.4	-52.7	307.3	Follow Yaw	-13.6	0	-52.4	307.6	30
252	3/1/2024	7:43:53.83 AM	2m 6.6s	126.6	-2.53697611486054	-44.2792420633215	20.0	-2.6	0.2	-52.5	307.5	Follow Yaw	-11.1	0	-52.4	307.6	30
253	3/1/2024	7:43:53.94 AM	2m 6.7s	126.7	-2.53697602760464	-44.279242054596	20.0	-2.8	-0.1	-52.7	307.3	Follow Yaw	-9.3	0	-52.4	307.6	30
254	3/1/2024	7:43:54.04 AM	2m 6.8s	126.8	-2.53697594148896	-44.2792420390296	20.0	-2.6	-0.3	-52.6	307.4	Follow Yaw	-9.2	0	-52.4	307.6	30
255	3/1/2024	7:43:54.14 AM	2m 6.9s	126.9	-2.53697587141651	-44.2792420413728	20.0	-2.7	0	-52.5	307.5	Follow Yaw	-9.2	0	-52.4	307.6	30
256	3/1/2024	7:43:54.14 AM	2m 7.0s	127.0	-2.5369758056236	-44.2792420340323	19.6	-2.7	-0.3	-52.6	307.4	Follow Yaw	-9.2	0	-52.4	307.6	30
257	3/1/2024	7:43:54.25 AM	2m 7.1s	127.1	-2.53697574506319	-44.2792420162491	19.6	-2.8	-0.8	-52.6	307.4	Follow Yaw	-9.2	0	-52.4	307.6	30
258	3/1/2024	7:43:54.35 AM	2m 7.2s	127.2	-2.53697569594057	-44.2792419873672	19.6	-2.6	-0.8	-52.8	307.2	Follow Yaw	-9.2	0	-52.4	307.6	30
259	3/1/2024	7:43:54.45 AM	2m 7.3s	127.3	-2.53697565474969	-44.2792419466942	19.6	-3.1	-1.1	-52.7	307.3	Follow Yaw	-9.2	0	-52.4	307.6	30
260	3/1/2024	7:43:54.55 AM	2m 7.4s	127.4	-2.53697561136418	-44.2792419125985	19.6	-3	-1.2	-52.6	307.4	Follow Yaw	-9.2	0	-52.4	307.6	30
261	3/1/2024	7:43:54.66 AM	2m 7.5s	127.5	-2.53697555512556	-44.2792419047992	19.6	-2.9	-0.9	-52.7	307.3	Follow Yaw	-9.3	0	-52.4	307.6	30
262	3/1/2024	7:43:54.76 AM	2m 7.6s	127.6	-2.53697551529931	-44.2792419095285	19.6	-2.9	-0.7	-52.6	307.4	Follow Yaw	-9.7	0	-52.4	307.6	30
263	3/1/2024	7:43:54.97 AM	2m 7.7s	127.7	-2.53697550132126	-44.2792419231312	19.6	-2.9	-0.5	-52.6	307.4	Follow Yaw	-10.1	0	-52.4	307.6	30
264	3/1/2024	7:43:54.97 AM	2m 7.8s	127.8	-2.53697548652013	-44.2792419389528	19.6	-2.8	-0.8	-52.4	307.6	Follow Yaw	-10.1	0	-52.4	307.6	30
265	3/1/2024	7:43:55.07 AM	2m 7.9s	127.9	-2.53697546239951	-44.2792419535545	19.6	-2.7	-0.9	-52.3	307.7	Follow Yaw	-10.1	0	-52.4	307.6	30
266	3/1/2024	7:43:55.17 AM	2m 8.0s	128.0	-2.53697544048941	-44.279241971312	19.6	-2.8	-1.2	-52.5	307.5	Follow Yaw	-10.1	0	-52.4	307.6	30
267	3/1/2024	7:43:55.28 AM	2m 8.1s	128.1	-2.53697542249572	-44.2792419922895	19.6	-2.7	-1	-52.4	307.6	Follow Yaw	-10.1	0	-52.4	307.6	30
268	3/1/2024	7:43:55.38 AM	2m 8.2s	128.2	-2.53697543436015	-44.279242001821	19.6	-2.7	-0.6	-52.3	307.7	Follow Yaw	-10.1	0	-52.4	307.6	30
269	3/1/2024	7:43:55.48 AM	2m 8.3s	128.3	-2.53697548203305	-44.2792419928555	19.6	-3	-0.4	-52.3	307.7	Follow Yaw	-10.1	0	-52.4	307.6	30
270	3/1/2024	7:43:55.59 AM	2m 8.4s	128.4	-2.5369755510116	-44.2792419733443	19.6	-3.2	-0.4	-52.3	307.7	Follow Yaw	-10.1	0	-52.4	307.6	30
271	3/1/2024	7:43:55.69 AM	2m 8.5s	128.5	-2.53697562211873	-44.2792419700064	19.6	-3.1	-0.2	-52.3	307.7	Follow Yaw	-10.1	0	-52.4	307.6	30
272	3/1/2024	7:43:55.79 AM	2m 8.6s	128.6	-2.5369757137528	-44.2792419627366	19.6	-3	0	-52.5	307.5	Follow Yaw	-11.5	0	-52.4	307.6	30
273	3/1/2024	7:43:55.90 AM	2m 8.7s	128.7	-2.53697579468249	-44.2792419755182	19.6	-2.8	0	-52.4	307.6	Follow Yaw	-13.1	0	-52.4	307.6	30
274	3/1/2024	7:43:56.00 AM	2m 8.8s	128.8	-2.53697588422442	-44.2792419867476	19.6	-2.7	0.2	-52.3	307.7	Follow Yaw	-13.5	0	-52.4	307.6	30
275	3/1/2024	7:43:56.10 AM	2m 8.9s	128.9	-2.53697595922668	-44.2792420059565	19.6	-2.4	0.7	-52.3	307.7	Follow Yaw	-13.5	0	-52.4	307.6	30
276	3/1/2024	7:43:56.21 AM	2m 9.0s	129.0	-2.53697602931257	-44.2792420068655	19.6	-2.3	0.9	-52.3	307.7	Follow Yaw	-13.5	0	-52.4	307.6	30
277	3/1/2024	7:43:56.31 AM	2m 9.1s	129.1	-2.5369760768954	-44.2792419987146	19.6	-2.3	0.7	-52.2	307.8	Follow Yaw	-13.5	0	-52.4	307.6	30
278	3/1/2024	7:43:56.42 AM	2m 9.2s	129.2	-2.53697609930422	-44.2792419824149	19.6	-2.3	0.6	-52.3	307.7	Follow Yaw	-13.5	0	-52.4	307.6	30
279	3/1/2024	7:43:56.52 AM	2m 9.3s	129.3	-2.53697609445583	-44.2792419810579	19.6	-2.2	0.3	-52.3	307.7	Follow Yaw	-13.5	0	-52.4	307.6	30
280	3/1/2024	7:43:56.62 AM	2m 9.4s	129.4	-2.53697607423239	-44.2792419682934	19.6	-2.1	0.4	-52.3	307.7	Follow Yaw	-13.5	0	-52.4	307.6	30
281	3/1/2024	7:43:56.73 AM	2m 9.5s	129.5	-2.53697605462124	-44.2792419469965	19.6	-2.3	0.5	-52.5	307.5	Follow Yaw	-13.5	0	-52.4	307.6	30
282	3/1/2024	7:43:56.83 AM	2m 9.6s	129.6	-2.53697601822898	-44.2792419192637	19.6	-2.3	0.4	-52.3	307.7	Follow Yaw	-13.5	0	-52.4	307.6	30
283	3/1/2024	7:43:56.93 AM	2m 9.7s	129.7	-2.53697598604767	-44.279241888358	19.6	-2.1	0.3	-52.4	307.6	Follow Yaw	-13.5	0	-52.4	307.6	30
284	3/1/2024	7:43:57.04 AM	2m 9.8s	129.8	-2.5369759339058	-44.2792418535977	19.6	-2.2	0	-52.3	307.7	Follow Yaw	-13.5	0	-52.4	307.6	30
285	3/1/2024	7:43:57.14 AM	2m 9.9s	129.9	-2.53697587784642	-44.2792418209341	19.6	-2.3	-0.2	-52.5	307.5	Follow Yaw	-13.5	0	-52.4	307.6	30
286	3/1/2024	7:43:57.24 AM	2m 10.0s	130.0	-2.53697580986967	-44.2792417845574	19.6	-2.3	-0.4	-52.6	307.4	Follow Yaw	-13.5	0	-52.4	307.6	30
287	3/1/2024	7:43:57.34 AM	2m 10.1s	130.1	-2.53697576047947	-44.279241740272	19.6	-2.3	-0.2	-52.5	307.5	Follow Yaw	-13.5	0	-52.4	307.6	30
288	3/1/2024	7:43:57.45 AM	2m 10.2s	130.2	-2.53697569279645	-44.2792417090983	19.6	-2.1	0	-52.4	307.6	Follow Yaw	-13.5	0	-52.4	307.6	30
289	3/1/2024	7:43:57.45 AM	2m 10.3s	130.3	-2.53697561843905	-44.2792416923635	19.6	-2.3	-0.1	-52.4	307.6	Follow Yaw	-13.5	0	-52.4	307.6	30
290	3/1/2024	7:43:57.65 AM	2m 10.4s	130.4	-2.53697554283243	-44.2792416918575	19.6	-2.1	0	-52.5	307.5	Follow Yaw	-13.5	0	-52.4	307.6	30
291	3/1/2024	7:43:57.65 AM	2m 10.5s	130.5	-2.53697550631855	-44.2792416976866	19.6	-2	-0.3	-52.4	307.6	Follow Yaw	-13.5	0	-52.4	307.6	30
292	3/1/2024	7:43:57.76 AM	2m 10.6s	130.6	-2.53697546640681	-44.2792417083716	19.6	-1.6	-0.2	-52.3	307.7	Follow Yaw	-13.5	0	-52.4	307.6	30
293	3/1/2024	7:43:57.86 AM	2m 10.7s	130.7	-2.53697543008884	-44.2792416976438	20.0	-1.1	0.2	-52.3	307.7	Follow Yaw	-13.5	0	-52.4	307.6	30
294	3/1/2024	7:43:57.97 AM	2m 10.8s	130.8	-2.53697540284498	-44.2792416624911	20.0	-1.5	0.2	-52.2	307.8	Follow Yaw	-13.5	0	-52.4	307.6	30
295	3/1/2024	7:43:58.07 AM	2m 10.9s	130.9	-2.53697539292897	-44.2792415975455	20.3	-3.1	-0.1	-52.2	307.8	Follow Yaw	-13.5	0	-52.4	307.6	30
296	3/1/2024	7:43:58.17 AM	2m 11.0s	131.0	-2.53697539202188	-44.2792415398868	20.9	-3.3	-0.5	-52.1	307.9	Follow Yaw	-13.5	0	-52.4	307.6	30
297	3/1/2024	7:43:58.28 AM	2m 11.1s	131.1	-2.53697540076851	-44.2792415092984	21.3	-2.8	-0.7	-52.1	307.9	Follow Yaw	-13.5	0	-52.4	307.6	30
298	3/1/2024	7:43:58.38 AM	2m 11.2s	131.2	-2.53697540325285	-44.2792415008924	21.3	-2	-0.7	-52.1	307.9	Follow Yaw	-13.5	0	-52.4	307.6	30
299	3/1/2024	7:43:58.48 AM	2m 11.3s	131.3	-2.53697537382463	-44.2792415104626	21.6	-1.4	-0.5	-52.1	307.9	Follow Yaw	-13.5	0	-52.4	307.6	30
300	3/1/2024	7:43:58.58 AM	2m 11.4s	131.4	-2.53697532732064	-44.279241537415	21.6	-1.1	-0.5	-52	308	Follow Yaw	-13.5	0	-52.4	307.6	30
301	3/1/2024	7:43:58.69 AM	2m 11.5s	131.5	-2.53697525902345	-44.2792415620435	21.6	-1.1	-0.1	-51.9	308.1	Follow Yaw	-13.5	0	-52.4	307.6	30
302	3/1/2024	7:43:58.79 AM	2m 11.6s	131.6	-2.53697517723546	-44.2792415913541	21.3	-0.9	-0.1	-51.8	308.2	Follow Yaw	-13.5	0	-52.4	307.6	30
303	3/1/2024	7:43:58.90 AM	2m 11.7s	131.7	-2.53697510727277	-44.2792416024849	21.3	-1.1	0	-51.8	308.2	Follow Yaw	-13.5	0	-52.4	307.6	30
304	3/1/2024	7:43:59.00 AM	2m 11.8s	131.8	-2.53697502247064	-44.2792416210249	21.3	-1.2	-0.7	-51.9	308.1	Follow Yaw	-13.5	0	-52.4	307.6	30
305	3/1/2024	7:43:59.10 AM	2m 11.9s	131.9	-2.53697494799502	-44.2792416454947	21.3	-1.1	-1	-52.1	307.9	Follow Yaw	-13.5	0	-52.4	307.6	30
306	3/1/2024	7:43:59.20 AM	2m 12.0s	132.0	-2.53697486482146	-44.2792416834922	21.3	-1	-1	-52.3	307.7	Follow Yaw	-13.5	0	-52.4	307.6	30
307	3/1/2024	7:43:59.31 AM	2m 12.1s	132.1	-2.53697478680067	-44.2792417101831	21.3	-0.8	-1.1	-52.2	307.8	Follow Yaw	-13.5	0	-52.4	307.6	30
308	3/1/2024	7:43:59.41 AM	2m 12.2s	132.2	-2.53697471567571	-44.2792417411702	21.3	-0.8	-1	-52.4	307.6	Follow Yaw	-13.5	0	-52.4	307.6	30
309	3/1/2024	7:43:59.52 AM	2m 12.3s	132.3	-2.53697467846851	-44.2792417612323	21.3	-0.9	-0.9	-52.5	307.5	Follow Yaw	-13.5	0	-52.4	307.6	30
310	3/1/2024	7:43:59.62 AM	2m 12.4s	132.4	-2.53697464810391	-44.279241781616	21.3	-0.7	-0.6	-52.6	307.4	Follow Yaw	-13.5	0	-52.4	307.6	30
311	3/1/2024	7:43:59.72 AM	2m 12.5s	132.5	-2.5369746307686	-44.2792417926054	21.3	-0.5	-0.5	-52.5	307.5	Follow Yaw	-13.5	0	-52.4	307.6	30
312	3/1/2024	7:43:59.83 AM	2m 12.6s	132.6	-2.53697461169819	-44.2792417961213	21.3	-0.3	-0.7	-52.4	307.6	Follow Yaw	-13.5	0	-52.4	307.6	30
313	3/1/2024	7:43:59.93 AM	2m 12.7s	132.7	-2.53697459882313	-44.2792417893596	21.3	-0.2	-0.6	-52.5	307.5	Follow Yaw	-13.5	0	-52.4	307.6	30
314	3/1/2024	7:44:00.03 AM	2m 12.8s	132.8	-2.53697459592711	-44.2792417713663	21.3	-0.4	-0.6	-52.5	307.5	Follow Yaw	-13.5	0	-52.4	307.6	30
315	3/1/2024	7:44:00.14 AM	2m 12.9s	132.9	-2.53697461872925	-44.2792417493018	21.3	-0.8	-0.5	-52.5	307.5	Follow Yaw	-13.5	0	-52.4	307.6	30
316	3/1/2024	7:44:00.24 AM	2m 13.0s	133.0	-2.53697464984698	-44.2792417243368	21.3	-1.2	-0.7	-52.6	307.4	Follow Yaw	-13.5	0	-52.4	307.6	30
317	3/1/2024	7:44:00.34 AM	2m 13.1s	133.1	-2.53697469235313	-44.2792417069009	21.3	-1.3	-0.3	-52.6	307.4	Follow Yaw	-13.5	0	-52.4	307.6	30
318	3/1/2024	7:44:00.44 AM	2m 13.2s	133.2	-2.53697472978854	-44.2792416949254	21.3	-1.4	0	-52.6	307.4	Follow Yaw	-13.5	0	-52.4	307.6	30
319	3/1/2024	7:44:00.55 AM	2m 13.3s	133.3	-2.5369747616111	-44.2792416861399	21.3	-1.2	-0.1	-52.6	307.4	Follow Yaw	-13.5	0	-52.4	307.6	30
320	3/1/2024	7:44:00.55 AM	2m 13.4s	133.4	-2.53697479226461	-44.2792416823367	21.3	-1	0.1	-52.6	307.4	Follow Yaw	-13.5	0	-52.4	307.6	30
321	3/1/2024	7:44:00.65 AM	2m 13.5s	133.5	-2.53697484330546	-44.2792416743659	21.3	-1.3	0.2	-52.6	307.4	Follow Yaw	-13.5	0	-52.4	307.6	30
322	3/1/2024	7:44:00.75 AM	2m 13.6s	133.6	-2.53697490104815	-44.2792416619359	21.3	-1.6	0.5	-52.7	307.3	Follow Yaw	-13.5	0	-52.4	307.6	30
323	3/1/2024	7:44:00.86 AM	2m 13.7s	133.7	-2.53697495829849	-44.2792416554658	21.3	-1.9	0.7	-52.7	307.3	Follow Yaw	-13.5	0	-52.4	307.6	30
324	3/1/2024	7:44:00.96 AM	2m 13.8s	133.8	-2.53697501689383	-44.2792416434066	21.3	-1.8	1	-52.6	307.4	Follow Yaw	-13.5	0	-52.4	307.6	30
325	3/1/2024	7:44:01.06 AM	2m 13.9s	133.9	-2.53697507343091	-44.2792416177169	21.3	-2	0.8	-52.6	307.4	Follow Yaw	-13.5	0	-52.4	307.6	30
326	3/1/2024	7:44:01.16 AM	2m 14.0s	134.0	-2.53697512277973	-44.2792415775649	21.3	-2.2	0.3	-52.4	307.6	Follow Yaw	-13.5	0	-52.4	307.6	30
327	3/1/2024	7:44:01.27 AM	2m 14.1s	134.1	-2.53697519522346	-44.2792415187635	21.3	-2.7	0.5	-52.3	307.7	Follow Yaw	-13.5	0	-52.4	307.6	30
328	3/1/2024	7:44:01.37 AM	2m 14.2s	134.2	-2.53697525436493	-44.2792414522958	21.3	-2.3	0.3	-52.5	307.5	Follow Yaw	-13.5	0	-52.4	307.6	30
329	3/1/2024	7:44:01.48 AM	2m 14.3s	134.3	-2.53697530118086	-44.2792413775914	21.3	-2.7	0.3	-52.5	307.5	Follow Yaw	-13.5	0	-52.4	307.6	30
330	3/1/2024	7:44:01.58 AM	2m 14.4s	134.4	-2.53697532877179	-44.2792413182433	21.3	-2.8	0.4	-52.5	307.5	Follow Yaw	-13.5	0	-52.4	307.6	30
331	3/1/2024	7:44:01.68 AM	2m 14.5s	134.5	-2.53697533366094	-44.2792412961081	21.3	-2.8	0.8	-52.4	307.6	Follow Yaw	-13.5	0	-52.4	307.6	30
332	3/1/2024	7:44:01.79 AM	2m 14.6s	134.6	-2.5369753232793	-44.2792412715847	21.3	-2.8	0.6	-52.4	307.6	Follow Yaw	-13.5	0	-52.4	307.6	30
333	3/1/2024	7:44:01.89 AM	2m 14.7s	134.7	-2.53697531519174	-44.2792412287957	21.3	-2.4	0	-52.5	307.5	Follow Yaw	-13.5	0	-52.4	307.6	30
334	3/1/2024	7:44:01.99 AM	2m 14.8s	134.8	-2.53697529715336	-44.2792411758727	21.3	-2.5	-0.2	-52.4	307.6	Follow Yaw	-13.5	0	-52.4	307.6	30
335	3/1/2024	7:44:02.10 AM	2m 14.9s	134.9	-2.53697527779035	-44.2792411186171	21.3	-2.3	-0.4	-52.4	307.6	Follow Yaw	-13.5	0	-52.4	307.6	30
336	3/1/2024	7:44:02.20 AM	2m 15.0s	135.0	-2.53697526014295	-44.2792410769772	21.3	-2.5	0	-52.6	307.4	Follow Yaw	-13.5	0	-52.4	307.6	30
337	3/1/2024	7:44:02.30 AM	2m 15.1s	135.1	-2.53697525187891	-44.2792410553844	21.3	-2.5	0	-52.4	307.6	Follow Yaw	-13.5	0	-52.4	307.6	30
338	3/1/2024	7:44:02.41 AM	2m 15.2s	135.2	-2.53697524161406	-44.2792410478488	21.3	-2.7	-0.4	-52.5	307.5	Follow Yaw	-13.5	0	-52.4	307.6	30
339	3/1/2024	7:44:02.51 AM	2m 15.3s	135.3	-2.53697524027858	-44.2792410483826	21.3	-2.8	-0.3	-52.4	307.6	Follow Yaw	-13.5	0	-52.4	307.6	30
340	3/1/2024	7:44:02.61 AM	2m 15.4s	135.4	-2.53697523037479	-44.2792410748119	21.3	-2.7	-0.1	-52.5	307.5	Follow Yaw	-13.5	0	-52.4	307.6	30
341	3/1/2024	7:44:02.72 AM	2m 15.5s	135.5	-2.53697520564117	-44.279241098958	21.3	-2.6	-0.2	-52.5	307.5	Follow Yaw	-13.5	0	-52.4	307.6	30
342	3/1/2024	7:44:02.82 AM	2m 15.6s	135.6	-2.53697518301298	-44.2792411236187	21.3	-2.7	-0.4	-52.5	307.5	Follow Yaw	-13.5	0	-52.4	307.6	30
343	3/1/2024	7:44:02.92 AM	2m 15.7s	135.7	-2.53697516938855	-44.2792412114005	21.3	-2.7	-0.5	-52.5	307.5	Follow Yaw	-13.5	0	-52.4	307.6	30
344	3/1/2024	7:44:03.02 AM	2m 15.8s	135.8	-2.53697516716949	-44.279241284765	21.3	-2.6	-0.4	-52.4	307.6	Follow Yaw	-13.5	0	-52.4	307.6	30
345	3/1/2024	7:44:03.13 AM	2m 15.9s	135.9	-2.53697513460865	-44.2792414003954	21.3	-2.3	-0.1	-52.3	307.7	Follow Yaw	-13.5	0	-52.4	307.6	30
346	3/1/2024	7:44:03.23 AM	2m 16.0s	136.0	-2.53697511166117	-44.2792415134125	21.3	-2.4	0.2	-52.3	307.7	Follow Yaw	-13.5	0	-52.4	307.6	30
347	3/1/2024	7:44:03.33 AM	2m 16.1s	136.1	-2.53697510323016	-44.279241599162	21.3	-2.4	0.5	-52.3	307.7	Follow Yaw	-13.5	0	-52.4	307.6	30
348	3/1/2024	7:44:03.44 AM	2m 16.2s	136.2	-2.53697508398638	-44.2792416974037	21.3	-2.2	0.2	-52.2	307.8	Follow Yaw	-13.5	0	-52.4	307.6	30
349	3/1/2024	7:44:03.54 AM	2m 16.3s	136.3	-2.53697506268791	-44.2792417840043	21.3	-2.2	0	-52.2	307.8	Follow Yaw	-13.5	0	-52.4	307.6	30
350	3/1/2024	7:44:03.64 AM	2m 16.4s	136.4	-2.53697503347256	-44.2792418695715	21.3	-2.3	-0.1	-52.4	307.6	Follow Yaw	-13.5	0	-52.4	307.6	30
351	3/1/2024	7:44:03.75 AM	2m 16.5s	136.5	-2.53697500552286	-44.2792419257102	21.3	-2.1	-0.4	-52.4	307.6	Follow Yaw	-13.5	0	-52.4	307.6	30
352	3/1/2024	7:44:03.85 AM	2m 16.6s	136.6	-2.53697497758792	-44.2792419769953	21.3	-2.1	-0.6	-52.4	307.6	Follow Yaw	-13.5	0	-52.4	307.6	30
353	3/1/2024	7:44:03.85 AM	2m 16.7s	136.7	-2.53697496950084	-44.2792420259393	21.3	-2	-0.6	-52.5	307.5	Follow Yaw	-13.5	0	-52.4	307.6	30
354	3/1/2024	7:44:03.95 AM	2m 16.8s	136.8	-2.53697497419938	-44.2792420712773	21.3	-2.2	-0.4	-52.6	307.4	Follow Yaw	-13.5	0	-52.4	307.6	30
355	3/1/2024	7:44:04.06 AM	2m 16.9s	136.9	-2.53697499073628	-44.2792421126256	21.3	-2.1	-0.5	-52.8	307.2	Follow Yaw	-13.5	0	-52.4	307.6	30
356	3/1/2024	7:44:04.16 AM	2m 17.0s	137.0	-2.53697502530031	-44.2792421480634	21.3	-2	-0.6	-52.6	307.4	Follow Yaw	-13.5	0	-52.4	307.6	30
357	3/1/2024	7:44:04.26 AM	2m 17.1s	137.1	-2.53697507309687	-44.2792421695876	21.3	-2	-0.4	-52.5	307.5	Follow Yaw	-13.5	0	-52.4	307.6	30
358	3/1/2024	7:44:04.37 AM	2m 17.2s	137.2	-2.53697515050862	-44.2792421802832	21.3	-2.3	0.2	-52.4	307.6	Follow Yaw	-13.5	0	-52.4	307.6	30
359	3/1/2024	7:44:04.47 AM	2m 17.3s	137.3	-2.53697523793749	-44.2792421824806	21.3	-2.5	0.3	-52.4	307.6	Follow Yaw	-13.5	0	-52.4	307.6	30
360	3/1/2024	7:44:04.57 AM	2m 17.4s	137.4	-2.53697533094108	-44.2792421713327	21.3	-2.4	0.4	-52.4	307.6	Follow Yaw	-13.5	0	-52.4	307.6	30
361	3/1/2024	7:44:04.67 AM	2m 17.5s	137.5	-2.53697541059174	-44.279242163662	21.3	-2.5	0.4	-52.3	307.7	Follow Yaw	-13.5	0	-52.4	307.6	30
362	3/1/2024	7:44:04.78 AM	2m 17.6s	137.6	-2.53697548574204	-44.2792421499757	21.3	-2.6	0.4	-52.3	307.7	Follow Yaw	-13.5	0	-52.4	307.6	30
363	3/1/2024	7:44:04.88 AM	2m 17.7s	137.7	-2.53697554744592	-44.2792421445796	21.3	-3	0.6	-52.3	307.7	Follow Yaw	-13.5	0	-52.4	307.6	30
364	3/1/2024	7:44:04.99 AM	2m 17.8s	137.8	-2.53697559898872	-44.2792421447147	21.3	-2.5	0.7	-52.2	307.8	Follow Yaw	-13.5	0	-52.4	307.6	30
365	3/1/2024	7:44:05.09 AM	2m 17.9s	137.9	-2.53697564182524	-44.2792421648068	20.9	-1.9	0.8	-52.2	307.8	Follow Yaw	-13.5	0	-52.4	307.6	30
366	3/1/2024	7:44:05.20 AM	2m 18.0s	138.0	-2.53697567579672	-44.2792421773247	20.3	-0.8	0.8	-52.2	307.8	Follow Yaw	-13.5	0	-52.4	307.6	30
367	3/1/2024	7:44:05.30 AM	2m 18.1s	138.1	-2.53697570919254	-44.2792421660352	19.6	-0.1	-0.1	-52.5	307.5	Follow Yaw	-13.5	0	-52.4	307.6	30
368	3/1/2024	7:44:05.40 AM	2m 18.2s	138.2	-2.53697574449945	-44.2792421489531	19.0	0.9	-1.4	-52.9	307.1	Follow Yaw	-13.5	0	-52.4	307.6	30
369	3/1/2024	7:44:05.51 AM	2m 18.3s	138.3	-2.53697583984932	-44.2792421160944	18.3	-3.4	0.4	-53.3	306.7	Follow Yaw	-13.5	0	-52.4	307.6	30
370	3/1/2024	7:44:05.61 AM	2m 18.4s	138.4	-2.53697595642657	-44.2792420845112	18.0	-5.6	2	-52.8	307.2	Follow Yaw	-13.5	0	-52.4	307.6	30
371	3/1/2024	7:44:05.71 AM	2m 18.5s	138.5	-2.536976058392	-44.2792420652724	17.7	-6.5	1.5	-52.6	307.4	Follow Yaw	-13.5	0	-52.4	307.6	30
372	3/1/2024	7:44:05.82 AM	2m 18.6s	138.6	-2.53697607768744	-44.2792420774944	17.7	-5.6	1.1	-52.3	307.7	Follow Yaw	-13.5	0	-52.4	307.6	30
373	3/1/2024	7:44:05.92 AM	2m 18.7s	138.7	-2.53697600687587	-44.2792420912107	17.7	-4.5	0.8	-52.4	307.6	Follow Yaw	-13.5	0	-52.4	307.6	30
374	3/1/2024	7:44:06.02 AM	2m 18.8s	138.8	-2.53697587384777	-44.2792421456344	17.7	-3.5	0.3	-52.5	307.5	Follow Yaw	-13.5	0	-52.4	307.6	30
375	3/1/2024	7:44:06.13 AM	2m 18.9s	138.9	-2.53697570370743	-44.2792422528138	18.0	-3.2	-0.3	-52.3	307.7	Follow Yaw	-13.5	0	-52.4	307.6	30
376	3/1/2024	7:44:06.23 AM	2m 19.0s	139.0	-2.5369754921694	-44.2792423612366	18.0	-2.6	-1.1	-52.5	307.5	Follow Yaw	-13.5	0	-52.4	307.6	30
377	3/1/2024	7:44:06.33 AM	2m 19.1s	139.1	-2.53697528422515	-44.2792424318934	18.0	-2.3	-1.3	-52.2	307.8	Follow Yaw	-13.5	0	-52.4	307.6	30
378	3/1/2024	7:44:06.44 AM	2m 19.2s	139.2	-2.536975069317	-44.2792424997375	18.0	-2	-1.4	-52.2	307.8	Follow Yaw	-13.5	0	-52.4	307.6	30
379	3/1/2024	7:44:06.54 AM	2m 19.3s	139.3	-2.53697489220489	-44.2792425617739	18.0	-1.9	-1.6	-52.3	307.7	Follow Yaw	-13.5	0	-52.4	307.6	30
380	3/1/2024	7:44:06.64 AM	2m 19.4s	139.4	-2.53697474067037	-44.279242628426	18.0	-1.4	-1.8	-52.4	307.6	Follow Yaw	-13.5	0	-52.4	307.6	30
381	3/1/2024	7:44:06.74 AM	2m 19.5s	139.5	-2.53697464191765	-44.2792427051843	18.0	-1.4	-1.9	-52.5	307.5	Follow Yaw	-13.5	0	-52.4	307.6	30
382	3/1/2024	7:44:06.85 AM	2m 19.6s	139.6	-2.53697458395207	-44.2792427785831	18.0	-1.1	-1.5	-52.4	307.6	Follow Yaw	-13.5	0	-52.4	307.6	30
383	3/1/2024	7:44:06.95 AM	2m 19.7s	139.7	-2.53697455195472	-44.2792428340143	18.0	-1.2	-1.2	-52.4	307.6	Follow Yaw	-13.5	0	-52.4	307.6	30
384	3/1/2024	7:44:06.95 AM	2m 19.8s	139.8	-2.53697455231634	-44.2792429005507	18.0	-1.2	-1.8	-52.4	307.6	Follow Yaw	-13.5	0	-52.4	307.6	30
385	3/1/2024	7:44:07.06 AM	2m 19.9s	139.9	-2.53697457523327	-44.2792429924487	18.0	-1.5	-1.5	-52.8	307.2	Follow Yaw	-13.5	0	-52.4	307.6	30
386	3/1/2024	7:44:07.16 AM	2m 20.0s	140.0	-2.53697462659799	-44.2792431031654	18.0	-1.2	-1.6	-52.7	307.3	Follow Yaw	-13.5	0	-52.4	307.6	30
387	3/1/2024	7:44:07.26 AM	2m 20.1s	140.1	-2.53697468936223	-44.2792432033966	18.0	-1.7	-0.7	-52.3	307.7	Follow Yaw	-13.5	0	-52.4	307.6	30
388	3/1/2024	7:44:07.36 AM	2m 20.2s	140.2	-2.5369747913511	-44.2792433186239	18.0	-1.7	0	-52.3	307.7	Follow Yaw	-13.5	0	-52.4	307.6	30
389	3/1/2024	7:44:07.47 AM	2m 20.3s	140.3	-2.53697491116873	-44.279243415262	18.0	-1.9	0.2	-52.3	307.7	Follow Yaw	-13.5	0	-52.4	307.6	30
390	3/1/2024	7:44:07.57 AM	2m 20.4s	140.4	-2.53697504227501	-44.2792435220148	18.0	-2	0.2	-52.4	307.6	Follow Yaw	-13.5	0	-52.4	307.6	30
391	3/1/2024	7:44:07.67 AM	2m 20.5s	140.5	-2.53697516239988	-44.279243609593	18.3	-2.3	0.6	-52.6	307.4	Follow Yaw	-13.5	0	-52.4	307.6	30
392	3/1/2024	7:44:07.77 AM	2m 20.6s	140.6	-2.53697530448126	-44.2792436964701	18.7	-2.7	1	-52.6	307.4	Follow Yaw	-13.5	0	-52.4	307.6	30
393	3/1/2024	7:44:07.88 AM	2m 20.7s	140.7	-2.53697545621845	-44.2792437605218	19.3	-3.2	1.5	-52.6	307.4	Follow Yaw	-13.5	0	-52.4	307.6	30
394	3/1/2024	7:44:07.99 AM	2m 20.8s	140.8	-2.5369755734595	-44.2792438142787	20.3	-3.8	1.2	-52.5	307.5	Follow Yaw	-13.5	0	-52.4	307.6	30
395	3/1/2024	7:44:08.09 AM	2m 20.9s	140.9	-2.53697562296124	-44.2792438541563	20.9	-3.2	0.5	-52.3	307.7	Follow Yaw	-13.5	0	-52.4	307.6	30
396	3/1/2024	7:44:08.19 AM	2m 21.0s	141.0	-2.53697565119602	-44.2792438986218	21.9	-2	0.3	-52.2	307.8	Follow Yaw	-13.5	0	-52.4	307.6	30
397	3/1/2024	7:44:08.29 AM	2m 21.1s	141.1	-2.53697566006412	-44.279243951832	22.3	-1.6	0.5	-52.2	307.8	Follow Yaw	-13.5	0	-52.4	307.6	30
398	3/1/2024	7:44:08.40 AM	2m 21.2s	141.2	-2.53697567048077	-44.2792439767349	22.9	-1.5	0.6	-52.2	307.8	Follow Yaw	-13.5	0	-52.4	307.6	30
399	3/1/2024	7:44:08.50 AM	2m 21.3s	141.3	-2.53697569122083	-44.27924397377	23.2	-1.6	0.5	-52.2	307.8	Follow Yaw	-13.5	0	-52.4	307.6	30
400	3/1/2024	7:44:08.60 AM	2m 21.4s	141.4	-2.53697568791071	-44.2792439499755	23.6	-1.2	0.6	-52.6	307.4	Follow Yaw	-13.5	0	-52.4	307.6	30
401	3/1/2024	7:44:08.71 AM	2m 21.5s	141.5	-2.53697565063054	-44.279243927062	23.9	-1.2	0.2	-52.4	307.6	Follow Yaw	-13.5	0	-52.4	307.6	30
402	3/1/2024	7:44:08.81 AM	2m 21.6s	141.6	-2.53697560068861	-44.279243861767	23.9	-1.8	-0.7	-52.3	307.7	Follow Yaw	-13.5	0	-52.4	307.6	30
403	3/1/2024	7:44:08.91 AM	2m 21.7s	141.7	-2.5369755688455	-44.2792437800415	24.2	-2.2	-0.9	-52.3	307.7	Follow Yaw	-13.5	0	-52.4	307.6	30
404	3/1/2024	7:44:09.01 AM	2m 21.8s	141.8	-2.53697555222408	-44.2792436991714	24.6	-2	-1.1	-52.3	307.7	Follow Yaw	-13.5	0	-52.4	307.6	30
405	3/1/2024	7:44:09.12 AM	2m 21.9s	141.9	-2.53697556995244	-44.2792436529672	24.6	-1.6	-0.9	-52.3	307.7	Follow Yaw	-13.5	0	-52.4	307.6	30
406	3/1/2024	7:44:09.22 AM	2m 22.0s	142.0	-2.5369755858373	-44.2792436194332	24.9	-1.6	-0.7	-52.4	307.6	Follow Yaw	-13.5	0	-52.4	307.6	30
407	3/1/2024	7:44:09.32 AM	2m 22.1s	142.1	-2.53697557909544	-44.2792436013413	24.9	-1.5	-1.2	-52.3	307.7	Follow Yaw	-13.5	0	-52.4	307.6	30
408	3/1/2024	7:44:09.43 AM	2m 22.2s	142.2	-2.53697556293659	-44.2792435990067	24.9	-2.2	-1.5	-52.2	307.8	Follow Yaw	-13.5	0	-52.4	307.6	30
409	3/1/2024	7:44:09.53 AM	2m 22.3s	142.3	-2.53697554244334	-44.2792436114645	24.6	-1.8	-1.7	-52.2	307.8	Follow Yaw	-13.5	0	-52.4	307.6	30
410	3/1/2024	7:44:09.63 AM	2m 22.4s	142.4	-2.53697551636096	-44.2792436662591	24.6	-1.7	-1	-52.4	307.6	Follow Yaw	-13.5	0	-52.4	307.6	30
411	3/1/2024	7:44:09.73 AM	2m 22.5s	142.5	-2.53697550246321	-44.279243740822	24.6	-1.8	-0.5	-52.4	307.6	Follow Yaw	-13.5	0	-52.4	307.6	30
412	3/1/2024	7:44:09.84 AM	2m 22.6s	142.6	-2.53697548693111	-44.2792438290755	24.6	-1.7	-0.3	-52.3	307.7	Follow Yaw	-13.5	0	-52.4	307.6	30
413	3/1/2024	7:44:09.94 AM	2m 22.7s	142.7	-2.53697549350514	-44.2792438907153	24.6	-1.8	-0.2	-52.1	307.9	Follow Yaw	-13.5	0	-52.4	307.6	30
414	3/1/2024	7:44:10.04 AM	2m 22.8s	142.8	-2.5369754888945	-44.279243965379	24.6	-2.1	-0.4	-52.1	307.9	Follow Yaw	-13.5	0	-52.4	307.6	30
415	3/1/2024	7:44:10.14 AM	2m 22.9s	142.9	-2.53697549020632	-44.2792440433292	24.6	-2.2	-0.3	-51.9	308.1	Follow Yaw	-13.5	0	-52.4	307.6	30
416	3/1/2024	7:44:10.25 AM	2m 23.0s	143.0	-2.53697547603824	-44.2792441483089	24.6	1.8	0	-51.8	308.2	Follow Yaw	-13.5	0	-52.4	307.6	30
417	3/1/2024	7:44:10.25 AM	2m 23.1s	143.1	-2.53697548496853	-44.2792442267672	24.6	10.6	0.1	-51.9	308.1	Follow Yaw	-13.5	0	-52.4	307.6	30
418	3/1/2024	7:44:10.35 AM	2m 23.2s	143.2	-2.53697558555314	-44.2792441785243	24.6	17.6	0.2	-52	308	Follow Yaw	-13.5	0	-52.4	307.6	30
419	3/1/2024	7:44:10.45 AM	2m 23.3s	143.3	-2.53697586823269	-44.2792438808815	24.6	20.7	0	-51.7	308.3	Follow Yaw	-13.5	0	-52.4	307.6	30
420	3/1/2024	7:44:10.56 AM	2m 23.4s	143.4	-2.53697637847672	-44.2792432587421	24.6	22.3	0	-51.9	308.1	Follow Yaw	-13.5	0	-52.4	307.6	30
421	3/1/2024	7:44:10.66 AM	2m 23.5s	143.5	-2.53697714545592	-44.279242271626	24.6	23.1	-0.1	-51.9	308.1	Follow Yaw	-13.5	0	-52.4	307.6	30
422	3/1/2024	7:44:10.76 AM	2m 23.6s	143.6	-2.53697819450952	-44.2792409037352	24.6	22.8	-0.4	-51.8	308.2	Follow Yaw	-13.5	0	-52.4	307.6	30
423	3/1/2024	7:44:10.87 AM	2m 23.7s	143.7	-2.53697949901326	-44.2792392225345	24.6	20.8	-0.9	-51.9	308.1	Follow Yaw	-13.5	0	-52.4	307.6	30
424	3/1/2024	7:44:10.97 AM	2m 23.8s	143.8	-2.5369810591591	-44.2792372068811	24.6	18.7	-1	-51.9	308.1	Follow Yaw	-13.5	0	-52.4	307.6	30
425	3/1/2024	7:44:11.08 AM	2m 23.9s	143.9	-2.5369827833959	-44.2792349992143	24.6	17	-0.7	-52	308	Follow Yaw	-13.5	0	-52.4	307.6	30
426	3/1/2024	7:44:11.18 AM	2m 24.0s	144.0	-2.53698471827479	-44.2792325440534	24.6	15.7	-0.2	-51.9	308.1	Follow Yaw	-13.5	0	-52.4	307.6	30
427	3/1/2024	7:44:11.28 AM	2m 24.1s	144.1	-2.53698678274933	-44.2792299800153	24.6	15.6	0.2	-52	308	Follow Yaw	-13.5	0	-52.4	307.6	30
428	3/1/2024	7:44:11.39 AM	2m 24.2s	144.2	-2.5369889850635	-44.2792272191208	24.9	14.9	0	-52.2	307.8	Follow Yaw	-13.5	0	-52.4	307.6	30
429	3/1/2024	7:44:11.49 AM	2m 24.3s	144.3	-2.53699125070461	-44.2792243702087	24.9	14.9	0.2	-52.5	307.5	Follow Yaw	-13.5	0	-52.4	307.6	30
430	3/1/2024	7:44:11.59 AM	2m 24.4s	144.4	-2.53699364013188	-44.2792213495102	24.9	15.1	-0.3	-52.6	307.4	Follow Yaw	-13.5	0	-52.4	307.6	30
431	3/1/2024	7:44:11.70 AM	2m 24.5s	144.5	-2.53699613600891	-44.279218217379	24.6	15	-0.2	-52.6	307.4	Follow Yaw	-13.5	0	-52.4	307.6	30
432	3/1/2024	7:44:11.80 AM	2m 24.6s	144.6	-2.53699872806022	-44.2792149311097	24.6	13.1	-0.2	-52.5	307.5	Follow Yaw	-13.5	0	-52.4	307.6	30
433	3/1/2024	7:44:11.90 AM	2m 24.7s	144.7	-2.53700138375274	-44.2792115208661	24.6	2.8	-0.2	-52.4	307.6	Follow Yaw	-13.5	0	-52.4	307.6	30
434	3/1/2024	7:44:12.01 AM	2m 24.8s	144.8	-2.53700404248557	-44.2792080976866	24.6	-18.6	0.8	-52.7	307.3	Follow Yaw	-13.5	0	-52.4	307.6	30
435	3/1/2024	7:44:12.11 AM	2m 24.9s	144.9	-2.53700650807355	-44.2792049558094	24.9	-17.6	1.6	-52.7	307.3	Follow Yaw	-13.5	0	-52.4	307.6	30
436	3/1/2024	7:44:12.21 AM	2m 25.0s	145.0	-2.53700875237227	-44.2792020524565	24.9	-15.7	1.6	-52.3	307.7	Follow Yaw	-13.5	0	-52.4	307.6	30
437	3/1/2024	7:44:12.31 AM	2m 25.1s	145.1	-2.53701062004446	-44.2791996321074	24.9	-16.2	1.2	-52.2	307.8	Follow Yaw	-13.5	0	-52.4	307.6	30
438	3/1/2024	7:44:12.42 AM	2m 25.2s	145.2	-2.53701234927611	-44.2791973155547	24.9	-16	-0.7	-52.1	307.9	Follow Yaw	-13.5	0	-52.4	307.6	30
439	3/1/2024	7:44:12.52 AM	2m 25.3s	145.3	-2.53701368765189	-44.2791953931607	24.9	-14	0.5	-52.4	307.6	Follow Yaw	-13.5	0	-52.4	307.6	30
